,QID,itemLabel,icao,iata,max_population,lon,lat,alt_in_m,max_rwy_lenght_m,max_passengers19,maxpax,traffic_source_url,wdpa_link,wpda_iata,wpda_icao,wpda_passengers,wpda_movements,wpda_year_data
0,Q1430826,Aktau Airport,UATE,SCO,183350,51.091944444444,43.86,22,3052,1029685,1068000,https://en.wikipedia.org/wiki/List_of_the_busiest_airports_in_Kazakhstan#Kazakhstan's_busiest_airports_by_passenger_traffic_in_2019,https://en.wikipedia.org/wiki/Aktau_International_Airport,SCO,UATE,"1,023,900",,(2018)
1,Q1430836,Aktobe Airport,UATT,AKX,387807,57.203333,50.245,225,,,411248,https://en.wikipedia.org/wiki/List_of_the_busiest_airports_in_Kazakhstan,https://en.wikipedia.org/wiki/Aktobe_International_Airport,AKX,UATT,,,
2,Q858844,Almaty International Airport,UAAA,ALA,1916822,77.040555555556,43.351944444444,680.9245404,4500,6422721,7230156,https://www.alaport.com/en/news/ALAPORT-RESULTS.-THE-PASSENGER-FLOW-OF-THE-ALMATY-INTERNATIONAL-AIRPORT-IS-GROWING,https://en.wikipedia.org/wiki/Almaty_International_Airport,ALA[1],UAAA[1],"6,422,721",,(2019)
3,Q174233,Nursultan Nazarbayev International Airport,UACC,NQZ,1078362,71.466944444444,51.022222222222,355.092699,3500,5099391,6000000,https://en.wikipedia.org/wiki/List_of_the_busiest_airports_in_the_former_USSR,https://en.wikipedia.org/wiki/Nursultan_Nazarbayev_International_Airport,NQZ,UACC,"5,099,391",,(2019)
4,Q1430894,Atyrau Airport,UATG,GUW,295496,51.829444444444,47.122222222222,-22,,937032,937032,https://en.wikipedia.org/wiki/List_of_the_busiest_airports_in_Kazakhstan#Kazakhstan's_busiest_airports_by_passenger_traffic_in_2019,https://en.wikipedia.org/wiki/Atyrau_Airport,GUW,UATG,,,
5,Q2393266,Balkhash Airport,UAAH,BXH,78002,75.005,46.893333,440,,,,,https://en.wikipedia.org/wiki/Balkhash_Airport,BXH,UAAH,,,
6,Q2393071,Zhezkazgan Airport,UAKD,DZN,86227,67.739166666667,47.708888888889,381,,,33898,https://en.wikipedia.org/wiki/List_of_the_busiest_airports_in_Kazakhstan,https://en.wikipedia.org/wiki/Zhezkazgan_Airport,DZN,UAKD,,,
7,Q117807,Sary-Arka Airport,UAKK,KGF,497777,73.335277777778,49.671666666667,225,3602,,281931,https://en.wikipedia.org/wiki/List_of_the_busiest_airports_in_Kazakhstan,https://en.wikipedia.org/wiki/Sary-Arka_Airport,KGF,UAKK,301,,
8,Q2635747,Kokshetau International Airport,UACK,KOV,139063,69.596666666667,53.33,270,,21683,22031,,https://en.wikipedia.org/wiki/Kokshetau_Airport,KOV,UACK,"11,877",,(2020)
9,Q2393255,Kostanay Airport,UAUU,KSN,217135,63.550277777778,53.206944444444,183,2514,,190855,http://kase.kz/files/emitters/ARAL/aralp_2016_rus.pdf,https://en.wikipedia.org/wiki/Kostanay_Airport,KSN,UAUU,,,
10,Q2636259,Kyzylorda Airport,UAOO,KZO,242462,65.5925,44.706944444444,131,2700,,226962,https://en.wikipedia.org/wiki/List_of_the_busiest_airports_in_Kazakhstan,https://en.wikipedia.org/wiki/Kyzylorda_Airport,KZO,UAOO,,,
11,Q27268,Oral Ak Zhol Airport,UARR,URA,235764,51.543055555556,51.150833333333,38,2799,,273095,https://en.wikipedia.org/wiki/List_of_the_busiest_airports_in_Kazakhstan,https://en.wikipedia.org/wiki/Oral_Ak_Zhol_Airport,URA,UARR,,,
12,Q1433309,Oskemen Airport,UASK,UKK,333113,82.494166666667,50.036111111111,286,,,393034,https://en.wikipedia.org/wiki/List_of_the_busiest_airports_in_Kazakhstan,https://en.wikipedia.org/wiki/Oskemen_Airport,UKK,UASK,,,
13,Q1432328,Pavlodar Airport,UASP,PWQ,360502,77.073888888889,52.195,125,2500,,188169,https://en.wikipedia.org/wiki/List_of_the_busiest_airports_in_Kazakhstan,https://en.wikipedia.org/wiki/Pavlodar_Airport,PWQ,UASP,,,
14,Q108919459,Petropavlovsk Airport,UACP,PPK,,69.185,54.774444444444,,,,,,https://en.wikipedia.org/wiki/Petropavl_Airport_(Kazakhstan),PPK,UACP,"18,500",,
15,Q432481,Semey Airport,UASS,PLX,350201,80.234444444444,50.351388888889,232,3096,,66235,https://en.wikipedia.org/wiki/List_of_the_busiest_airports_in_Kazakhstan,https://en.wikipedia.org/wiki/Semey_Airport,PLX,UASS,"49,900",,
16,Q27315,Shymkent International Airport,UAII,CIT,1028673,69.476111111111,42.365,422.148831,2800,955412,955412,https://en.wikipedia.org/wiki/List_of_the_busiest_airports_in_Kazakhstan#Kazakhstan's_busiest_airports_by_passenger_traffic_in_2019,https://en.wikipedia.org/wiki/Shymkent_International_Airport,CIT,UAII,,,
17,Q1433007,Taraz Airport,UADD,DMB,357795,71.303611111111,42.853611111111,666,,,63261,https://en.wikipedia.org/wiki/List_of_the_busiest_airports_in_Kazakhstan,https://en.wikipedia.org/wiki/Taraz_Airport,DMB,UADD,"43,700",,
18,Q4869310,Batken Airport,UAFB,,27730,70.83805556,40.0425,1072,,,,,https://en.wikipedia.org/wiki/Batken_Airport,none (БАТ),UAFB,,,
19,Q32997,Manas International Airport,UCFM,FRU,1074075,74.477508333333,43.061272222222,637,4204,3683347,3683347,https://en.wikipedia.org/wiki/List_of_the_busiest_airports_in_the_former_USSR,https://en.wikipedia.org/wiki/Manas_International_Airport,FRU,UCFM,"3,586,337",,(2017)
20,Q5104393,Cholpon-Ata Airport,UAFG,,11520,77.05666667,42.65361111,1652,,,,,https://en.wikipedia.org/wiki/Cholpon-Ata_Airport,none (ЧЛА),UAFG,,,
21,Q6079811,Isfana Airport,UAFI,,18244,69.56861111,39.82472222,1380,,,,,https://en.wikipedia.org/wiki/Isfana_Airport,none (ИФА),UAFI,,,
22,Q6125855,Jalal-Abad Airport,UAFJ,,89004,72.97777778,40.94416667,790,,,,,https://en.wikipedia.org/wiki/Jalal-Abad_Airport,JBD (ДЖБ),UAFJ,,,
23,Q6368126,Karakol International Airport,UAFP,,85588,78.40777778,42.50805556,1704,,,,,https://en.wikipedia.org/wiki/Karakol_International_Airport,none (КПЖ),UCFP,,,
24,Q6380919,Kazarman Airport,UAFZ,,,74.04416667,41.41027778,1310,,,,,https://en.wikipedia.org/wiki/Kazarman_Airport,none (КЗМ),UAFZ,,,
25,Q6393700,Kerben Airport,UAFE,,14141,71.73361111,41.48444444,1288,,,,,https://en.wikipedia.org/wiki/Kerben_Airport,none (КРФ),UAFE,,,
26,Q6452913,Kyzyl-Kiya Airport,UAFS,,51300,72.04694444,40.27166667,892,,,,,https://en.wikipedia.org/wiki/Kyzyl-Kiya_Airport,none (КЫК),UAFS,,,
27,Q6966527,Naryn Airport,UAFN,,34822,76.13055556,41.44138889,2133,,,,,https://en.wikipedia.org/wiki/Naryn_Airport,none (НЫН),UCFN,,,
28,Q2448327,Osh Airport,UAFO,OSS,333629,72.793055555556,40.608888888889,892,,1499561,1499561,https://en.wikipedia.org/wiki/List_of_the_busiest_airports_in_the_former_USSR,https://en.wikipedia.org/wiki/Osh_Airport,OSS,UCFO,"1,210,576",,(2016)
29,Q7678919,Talas Airport,UAFT,,32886,72.26305556,42.50583333,1266,,,,,https://en.wikipedia.org/wiki/Talas_Airport,none (ТЛС),UAFT,,,
30,Q3495879,Tamchy Airport,UAFL,IKU,,76.713333333333,42.588333333333,1653,,,,,https://en.wikipedia.org/wiki/Issyk-Kul_International_Airport,IKU (ИКУ),UCFL,,,
31,Q532778,Dushanbe International Airport,UTDD,DYU,863400,68.821666666667,38.543611111111,784.861545,3100,1422204,1422204,https://en.wikipedia.org/wiki/List_of_the_busiest_airports_in_the_former_USSR,https://en.wikipedia.org/wiki/Dushanbe_International_Airport,DYU,UTDD,"1,305,000",,(2017)
32,Q6402378,Khorog Airport,UTOD,,30300,71.51333333,37.50222222,2042,,,,,https://en.wikipedia.org/wiki/Khorog_Airport,,UTOD,,,
33,Q2631952,Khujand Airport,UTDL,LBD,181600,69.694722222222,40.215277777778,442,,,,,https://en.wikipedia.org/wiki/Khujand_Airport,LBD,UTDL,,,
34,Q2231909,Kulob Airport,UTDK,TJU,105500,69.805,37.988333333333,699,,,,,https://en.wikipedia.org/wiki/Kulob_Airport,TJU,UTDK,,,
35,Q1319974,Qurghonteppa International Airport,UTDT,KQT,126700,68.862777777778,37.862222222222,1.8,,,,,https://en.wikipedia.org/wiki/Bokhtar_International_Airport,KQT,UTDT,,,
36,Q1148527,Ashgabat International Airport,UTAA,ASB,828100,58.360833333333,37.986944444444,210.9220152,3800,,2450000,https://ru.wikipedia.org/wiki/%D0%A1%D0%BF%D0%B8%D1%81%D0%BE%D0%BA_%D0%BD%D0%B0%D0%B8%D0%B1%D0%BE%D0%BB%D0%B5%D0%B5_%D0%B7%D0%B0%D0%B3%D1%80%D1%83%D0%B6%D0%B5%D0%BD%D0%BD%D1%8B%D1%85_%D0%BF%D0%B0%D1%81%D1%81%D0%B0%D0%B6%D0%B8%D1%80%D1%81%D0%BA%D0%B8%D1%85_%D0%B0%D1%8D%D1%80%D0%BE%D0%BF%D0%BE%D1%80%D1%82%D0%BE%D0%B2_%D0%BF%D0%BE%D1%81%D1%82%D1%81%D0%BE%D0%B2%D0%B5%D1%82%D1%81%D0%BA%D0%BE%D0%B3%D0%BE_%D0%BF%D1%80%D0%BE%D1%81%D1%82%D1%80%D0%B0%D0%BD%D1%81%D1%82%D0%B2%D0%B0,https://en.wikipedia.org/wiki/Ashgabat_International_Airport,ASB,UTAA,"1,300,000",,(2016)
37,Q4076660,Balkanabat Airport,UT1H,BKN,89785,54.36277778,39.48138889,235,2500,,,,https://en.wikipedia.org/wiki/Balkanabat_Airport,BKN,,,,
38,Q1708745,Daşoguz Airport,UTAT,TAZ,227184,59.833055555556,41.764722222222,85,3750,,,,https://en.wikipedia.org/wiki/Da%C5%9Foguz_Airport,TAZ,UTAT,,,
39,Q651297,Mary Airport,UTAM,MYP,126141,61.901388888889,37.606666666667,220,3800,,,,https://en.wikipedia.org/wiki/Mary_International_Airport,MYP,UTAM,,,
40,Q967711,Turkmenabat Airport,UTAV,CRZ,408906,63.613333333333,39.083333333333,195,2750,,,,https://en.wikipedia.org/wiki/Turkmenabat_International_Airport,CRZ,UTAV,,,
41,Q856152,Turkmenbashi Airport,UTAK,KRW,70962,53.007222,40.063333,86,3500,,,,https://en.wikipedia.org/wiki/Turkmenbashi_International_Airport,KRW,UTAK,,,
42,Q978217,Andizhan Airport,UTFA,AZN,441700,72.293888888889,40.727777777778,474,,4,4,https://www.lhconsulting.com/nocache/insights/downloads/file/?tx_lhc_download%5Buid%5D=3039&tx_lhc_download%5Bfuid%5D=37&tx_lhc_download%5Bmodel%5D=tx_lhc_domain_model_download&tx_lhc_download%5Bfield%5D=file&tx_lhc_download%5Baction%5D=download&tx_lhc_download%5Bcontroller%5D=Download&cHash=04da45b3b184473aa40de6fdc4bffc1b,https://en.wikipedia.org/wiki/Andizhan_Airport,AZN,UTFA,,,
43,Q978200,Bukhara International Airport,UTSB,BHK,280187,64.483333333333,39.775,225,,290000,290000,https://www.lhconsulting.com/nocache/insights/downloads/file/?tx_lhc_download%5Buid%5D=3039&tx_lhc_download%5Bfuid%5D=37&tx_lhc_download%5Bmodel%5D=tx_lhc_domain_model_download&tx_lhc_download%5Bfield%5D=file&tx_lhc_download%5Baction%5D=download&tx_lhc_download%5Bcontroller%5D=Download&cHash=04da45b3b184473aa40de6fdc4bffc1b,https://en.wikipedia.org/wiki/Bukhara_International_Airport,BHK,UTSB,,,
44,Q547124,Fergana International Airport,UTFF,FEG,288850,71.745,40.358888888889,604,2862,240000,240000,https://www.lhconsulting.com/nocache/insights/downloads/file/?tx_lhc_download%5Buid%5D=3039&tx_lhc_download%5Bfuid%5D=37&tx_lhc_download%5Bmodel%5D=tx_lhc_domain_model_download&tx_lhc_download%5Bfield%5D=file&tx_lhc_download%5Baction%5D=download&tx_lhc_download%5Bcontroller%5D=Download&cHash=04da45b3b184473aa40de6fdc4bffc1b,https://en.wikipedia.org/wiki/Fergana_International_Airport,FEG,UTFF,,,
45,Q978313,Namangan Airport,UTFN,NMA,,71.556666666667,40.984444444444,497,,240000,240000,https://www.lhconsulting.com/nocache/insights/downloads/file/?tx_lhc_download%5Buid%5D=3039&tx_lhc_download%5Bfuid%5D=37&tx_lhc_download%5Bmodel%5D=tx_lhc_domain_model_download&tx_lhc_download%5Bfield%5D=file&tx_lhc_download%5Baction%5D=download&tx_lhc_download%5Bcontroller%5D=Download&cHash=04da45b3b184473aa40de6fdc4bffc1b,https://en.wikipedia.org/wiki/Namangan_Airport,NMA,UTFN,,,
46,Q1432150,Navoi International Airport,UTSA,NVI,134100,65.175,40.117777777778,347,,65000,65000,https://www.lhconsulting.com/nocache/insights/downloads/file/?tx_lhc_download%5Buid%5D=3039&tx_lhc_download%5Bfuid%5D=37&tx_lhc_download%5Bmodel%5D=tx_lhc_domain_model_download&tx_lhc_download%5Bfield%5D=file&tx_lhc_download%5Baction%5D=download&tx_lhc_download%5Bcontroller%5D=Download&cHash=04da45b3b184473aa40de6fdc4bffc1b,https://en.wikipedia.org/wiki/Navoi_International_Airport,NVI,UTSA,,,
47,Q976276,Nukus Airport,UTNN,NCU,319583,59.623333333333,42.488333333333,77,,170000,170000,https://www.lhconsulting.com/nocache/insights/downloads/file/?tx_lhc_download%5Buid%5D=3039&tx_lhc_download%5Bfuid%5D=37&tx_lhc_download%5Bmodel%5D=tx_lhc_domain_model_download&tx_lhc_download%5Bfield%5D=file&tx_lhc_download%5Baction%5D=download&tx_lhc_download%5Bcontroller%5D=Download&cHash=04da45b3b184473aa40de6fdc4bffc1b,https://en.wikipedia.org/wiki/Nukus_Airport,NCU,UTNN,,,
48,Q14878327,Karshi Airport,UTSK,KSQ,274891,65.77316,38.80231,374.904738,,72000,72000,https://www.lhconsulting.com/nocache/insights/downloads/file/?tx_lhc_download%5Buid%5D=3039&tx_lhc_download%5Bfuid%5D=37&tx_lhc_download%5Bmodel%5D=tx_lhc_domain_model_download&tx_lhc_download%5Bfield%5D=file&tx_lhc_download%5Baction%5D=download&tx_lhc_download%5Bcontroller%5D=Download&cHash=04da45b3b184473aa40de6fdc4bffc1b,https://en.wikipedia.org/wiki/Karshi_Airport,KSQ,UTSK,,,
49,Q976746,Samarkand International Airport,UTSS,SKD,546303,66.983888888889,39.700555555556,677,,500000,500000,https://www.lhconsulting.com/nocache/insights/downloads/file/?tx_lhc_download%5Buid%5D=3039&tx_lhc_download%5Bfuid%5D=37&tx_lhc_download%5Bmodel%5D=tx_lhc_domain_model_download&tx_lhc_download%5Bfield%5D=file&tx_lhc_download%5Baction%5D=download&tx_lhc_download%5Bcontroller%5D=Download&cHash=04da45b3b184473aa40de6fdc4bffc1b,https://en.wikipedia.org/wiki/Samarkand_International_Airport,SKD,UTSS,,,
50,Q860952,Tashkent International Airport,UTTT,TAS,2571668,69.281186111111,41.257861111111,431.9024502,4000,4430000,4430000,https://www.lhconsulting.com/nocache/insights/downloads/file/?tx_lhc_download%5Buid%5D=3039&tx_lhc_download%5Bfuid%5D=37&tx_lhc_download%5Bmodel%5D=tx_lhc_domain_model_download&tx_lhc_download%5Bfield%5D=file&tx_lhc_download%5Baction%5D=download&tx_lhc_download%5Bcontroller%5D=Download&cHash=04da45b3b184473aa40de6fdc4bffc1b,https://en.wikipedia.org/wiki/Islam_Karimov_Tashkent_International_Airport,TAS,UTTT,"3,000,000",,(2017)
51,Q978073,Termez Airport,UTST,TMJ,136200,67.31,37.286666666667,313,,130000,130000,https://www.lhconsulting.com/nocache/insights/downloads/file/?tx_lhc_download%5Buid%5D=3039&tx_lhc_download%5Bfuid%5D=37&tx_lhc_download%5Bmodel%5D=tx_lhc_domain_model_download&tx_lhc_download%5Bfield%5D=file&tx_lhc_download%5Baction%5D=download&tx_lhc_download%5Bcontroller%5D=Download&cHash=04da45b3b184473aa40de6fdc4bffc1b,https://en.wikipedia.org/wiki/Termez_Airport,TMJ,UTST,,,
52,Q975965,Urgench International Airport,UTNU,UGC,150000,60.641666666667,41.584166666667,97,,360000,360000,https://www.lhconsulting.com/nocache/insights/downloads/file/?tx_lhc_download%5Buid%5D=3039&tx_lhc_download%5Bfuid%5D=37&tx_lhc_download%5Bmodel%5D=tx_lhc_domain_model_download&tx_lhc_download%5Bfield%5D=file&tx_lhc_download%5Baction%5D=download&tx_lhc_download%5Bcontroller%5D=Download&cHash=04da45b3b184473aa40de6fdc4bffc1b,https://en.wikipedia.org/wiki/Urgench_International_Airport,UGC,UTNU,,,
53,Q978048,Zarafshan Airport,UTSN,AFS,54300,64.232777777778,41.613611111111,417,,,,,https://en.wikipedia.org/wiki/Zarafshan_Airport,AFS,UTSN,,,
54,Q2637229,Anqing Tianzhushan Airport,ZSAQ,AQG,4165284,117.05027778,30.58222222,1012,,592913,596482,https://zh.wikipedia.org/wiki/%E4%B8%AD%E5%8D%8E%E4%BA%BA%E6%B0%91%E5%85%B1%E5%92%8C%E5%9B%BD%E6%9C%BA%E5%9C%BA%E8%BF%90%E8%90%A5%E7%BB%9F%E8%AE%A1%E5%88%97%E8%A1%A8#2019%E5%B9%B4,https://en.wikipedia.org/wiki/Anqing_Tianzhushan_Airport,AQG,ZSAQ,"596,482","7,226",(2021)
55,Q3274565,Chizhou Jiuhuashan Airport,ZSJH,JUH,1342764,117.68666667,30.74027778,,,524471,524471,http://www.caac.gov.cn/XXGK/XXGK/TJSJ/202104/P020210409601938094774.xls,https://en.wikipedia.org/wiki/Chizhou_Jiuhuashan_Airport,JUH,ZSJH,"156,720","2,460",(2021)
56,Q3267356,Fuyang Xiguan Airport,ZSFY,FUG,8200264,115.73444444,32.88194444,,,922159,922159,https://zh.wikipedia.org/wiki/%E4%B8%AD%E5%8D%8E%E4%BA%BA%E6%B0%91%E5%85%B1%E5%92%8C%E5%9B%BD%E6%9C%BA%E5%9C%BA%E8%BF%90%E8%90%A5%E7%BB%9F%E8%AE%A1%E5%88%97%E8%A1%A8#2019%E5%B9%B4,https://en.wikipedia.org/wiki/Fuyang_Xiguan_Airport,FUG,ZSFY,"853,063","16,596",(2021)
57,Q1431445,Hefei Xinqiao International Airport,ZSOF,HFE,9369881,116.9641,31.9894,,,12282384,12282384,https://zh.wikipedia.org/wiki/%E4%B8%AD%E5%8D%8E%E4%BA%BA%E6%B0%91%E5%85%B1%E5%92%8C%E5%9B%BD%E6%9C%BA%E5%9C%BA%E8%BF%90%E8%90%A5%E7%BB%9F%E8%AE%A1%E5%88%97%E8%A1%A8#2019%E5%B9%B4,https://en.wikipedia.org/wiki/Hefei_Xinqiao_International_Airport,HFE,ZSOF,"8,795,391","77,547",(2021)
58,Q1139165,Huangshan Tunxi International Airport,ZSTX,TXN,1330565,118.25277777778,29.73,262,,869681,869681,https://zh.wikipedia.org/wiki/%E4%B8%AD%E5%8D%8E%E4%BA%BA%E6%B0%91%E5%85%B1%E5%92%8C%E5%9B%BD%E6%9C%BA%E5%9C%BA%E8%BF%90%E8%90%A5%E7%BB%9F%E8%AE%A1%E5%88%97%E8%A1%A8#2019%E5%B9%B4,https://en.wikipedia.org/wiki/Huangshan_Tunxi_International_Airport,TXN,ZSTX,"435,005","5,595",(2021)
59,Q32190,Beijing Capital International Airport,ZBAA,PEK,21893095,116.58444444444,40.08,35.3568696,3800,100013642,100983290,https://zh.wikipedia.org/wiki/%E4%B8%AD%E5%8D%8E%E4%BA%BA%E6%B0%91%E5%85%B1%E5%92%8C%E5%9B%BD%E6%9C%BA%E5%9C%BA%E8%BF%90%E8%90%A5%E7%BB%9F%E8%AE%A1%E5%88%97%E8%A1%A8#2019%E5%B9%B4,https://en.wikipedia.org/wiki/Beijing_Capital_International_Airport,PEK,ZBAA,"32,639,013","298,176",(2021)
60,Q1139574,Beijing Daxing International Airport,ZBAD,PKX,21893095,116.410556,39.511944,29.8704588,3800,3135074,25051012,http://www.caac.gov.cn/XXGK/XXGK/TJSJ/202104/P020210409601938094774.xls,https://en.wikipedia.org/wiki/Beijing_Daxing_International_Airport,PKX,ZBAD,"52,000,000","211,238",(2022)
61,Q788417,Chongqing Jiangbei International Airport,ZUCK,CKG,7739000,106.64166666667,29.719166666667,416.052819,3800,44786722,44786722,https://zh.wikipedia.org/wiki/%E4%B8%AD%E5%8D%8E%E4%BA%BA%E6%B0%91%E5%85%B1%E5%92%8C%E5%9B%BD%E6%9C%BA%E5%9C%BA%E8%BF%90%E8%90%A5%E7%BB%9F%E8%AE%A1%E5%88%97%E8%A1%A8#2019%E5%B9%B4,https://en.wikipedia.org/wiki/Chongqing_Jiangbei_International_Airport,CKG,ZUCK,"35,766,284","280,577",(2021)
62,Q576468,Qianjiang Wulingshan Airport,ZUQJ,JIQ,966100,108.82916666667,29.5175,,,498128,498128,http://www.caac.gov.cn/XXGK/XXGK/TJSJ/202104/P020210409601938094774.xls,https://en.wikipedia.org/wiki/Qianjiang_Wulingshan_Airport,JIQ,ZUQJ,"364,059","4,344",(2021)
63,Q3267349,Wanzhou Wuqiao Airport,ZUWX,WXN,1760500,108.43138888889,30.797777777778,567,,1151410,8050007,https://zh.wikipedia.org/wiki/%E4%B8%AD%E5%8D%8E%E4%BA%BA%E6%B0%91%E5%85%B1%E5%92%8C%E5%9B%BD%E6%9C%BA%E5%9C%BA%E8%BF%90%E8%90%A5%E7%BB%9F%E8%AE%A1%E5%88%97%E8%A1%A8#2019%E5%B9%B4,https://en.wikipedia.org/wiki/Wanzhou_Wuqiao_Airport,WXN,ZUWX,"1,149,138","13,754",(2021)
64,Q1350630,Fuzhou Changle International Airport,ZSFZ,FOC,8291268,119.66333333333,25.935,14,,14760226,14760226,https://zh.wikipedia.org/wiki/%E4%B8%AD%E5%8D%8E%E4%BA%BA%E6%B0%91%E5%85%B1%E5%92%8C%E5%9B%BD%E6%9C%BA%E5%9C%BA%E8%BF%90%E8%90%A5%E7%BB%9F%E8%AE%A1%E5%88%97%E8%A1%A8#2019%E5%B9%B4,https://en.wikipedia.org/wiki/Fuzhou_Changle_International_Airport,FOC,ZSFZ,"9,037,195","80,592",(2021)
65,Q1930801,Longyan Guanzhishan Airport,ZSLD,LCX,2723637,116.74638888889,25.674166666667,,,229087,229087,http://www.caac.gov.cn/XXGK/XXGK/TJSJ/202104/P020210409601938094774.xls,https://en.wikipedia.org/wiki/Longyan_Guanzhaishan_Airport,LCX,ZSLD,"141,785","1,908",(2021)
66,Q2232118,Quanzhou Jinjiang Airport,ZSQZ,JJN,8782285,118.58944444444,24.798888888889,,,8435805,8435805,https://zh.wikipedia.org/wiki/%E4%B8%AD%E5%8D%8E%E4%BA%BA%E6%B0%91%E5%85%B1%E5%92%8C%E5%9B%BD%E6%9C%BA%E5%9C%BA%E8%BF%90%E8%90%A5%E7%BB%9F%E8%AE%A1%E5%88%97%E8%A1%A8#2019%E5%B9%B4,https://en.wikipedia.org/wiki/Quanzhou_Jinjiang_International_Airport,JJN,ZSQZ,"5,984,109","52,347",(2021)
67,Q8215087,Sanming Shaxian Airport,ZSSM,SQJ,2580000,117.845,26.428055555556,,,255569,273777,http://www.caac.gov.cn/XXGK/XXGK/TJSJ/202104/P020210409601938094774.xls,https://en.wikipedia.org/wiki/Sanming_Shaxian_Airport,SQJ,ZSSM,"273,777","4,396",(2021)
68,Q177216,Xiamen Gaoqi International Airport,ZSAM,XMN,5163970,118.12777777778,24.544166666667,17.9832354,,27413363,27413363,http://www.caac.gov.cn/XXGK/XXGK/TJSJ/202104/P020210409601938094774.xls,https://en.wikipedia.org/wiki/Xiamen_Gaoqi_International_Airport,XMN,ZSAM,"14,952,064","128,057",(2021)
69,Q2668990,Wuyishan Airport,ZSWY,WUS,238000,118.00027777778,27.700833333333,196,,641118,787455,https://zh.wikipedia.org/wiki/%E4%B8%AD%E5%8D%8E%E4%BA%BA%E6%B0%91%E5%85%B1%E5%92%8C%E5%9B%BD%E6%9C%BA%E5%9C%BA%E8%BF%90%E8%90%A5%E7%BB%9F%E8%AE%A1%E5%88%97%E8%A1%A8#2019%E5%B9%B4,https://en.wikipedia.org/wiki/Wuyishan_Airport,WUS,ZSWY,"262,920","3,328",(2021)
70,Q1154516,Dunhuang Airport,ZLDH,DNH,185231,94.800277777778,40.163611111111,,,901960,901960,http://www.caac.gov.cn/XXGK/XXGK/TJSJ/202104/P020210409601938094774.xls,https://en.wikipedia.org/wiki/Dunhuang_Mogao_International_Airport,DNH,ZLDH,"823,491","12,027",(2021)
71,Q1937403,Jiayuguan Airport,ZLJQ,JGN,231853,98.3446,39.89324,1558,,580971,622194,https://zh.wikipedia.org/wiki/%E4%B8%AD%E5%8D%8E%E4%BA%BA%E6%B0%91%E5%85%B1%E5%92%8C%E5%9B%BD%E6%9C%BA%E5%9C%BA%E8%BF%90%E8%90%A5%E7%BB%9F%E8%AE%A1%E5%88%97%E8%A1%A8#2019%E5%B9%B4,https://en.wikipedia.org/wiki/Jiayuguan_Airport,JGN,ZLJQ,"622,194","6,206",(2021)
72,Q81319,Jinchang Jinchuan Airport,ZLJC,JIC,438026,102.348,38.5419,,,193976,193976,http://www.caac.gov.cn/XXGK/XXGK/TJSJ/202104/P020210409601938094774.xls,https://en.wikipedia.org/wiki/Jinchang_Jinchuan_Airport,JIC,ZLJC,"180,280","2,395",(2021)
73,Q3234734,Lanzhou Zhongchuan International Airport,ZLLL,LHW,4359446,103.61944444444,36.5075,1947,,15302975,15302975,http://www.caac.gov.cn/XXGK/XXGK/TJSJ/202104/P020210409601938094774.xls,https://en.wikipedia.org/wiki/Lanzhou_Zhongchuan_International_Airport,LHW,ZLLL,"12,171,160","102,288",(2021)
74,Q1930812,Qingyang Airport,ZLQY,IQN,2179716,107.60277777778,35.799722222222,,,488805,488805,http://www.caac.gov.cn/XXGK/XXGK/TJSJ/202104/P020210409601938094774.xls,https://en.wikipedia.org/wiki/Qingyang_Xifeng_Airport,IQN,ZLQY,"400,364","21,849",(2021)
75,Q3281145,Tianshui Maijishan Airport,ZLTS,THQ,2984659,105.86111111111,34.558333333333,,,201567,201567,https://zh.wikipedia.org/wiki/%E4%B8%AD%E5%8D%8E%E4%BA%BA%E6%B0%91%E5%85%B1%E5%92%8C%E5%9B%BD%E6%9C%BA%E5%9C%BA%E8%BF%90%E8%90%A5%E7%BB%9F%E8%AE%A1%E5%88%97%E8%A1%A8#2019%E5%B9%B4,https://en.wikipedia.org/wiki/Tianshui_Maijishan_Airport,THQ,ZLTS,"170,351","3,102",(2021)
76,Q3274816,Gannan Xiahe Airport,ZLXH,GXH,112173,102.64472222,34.81055556,3203,,86091,122024,http://www.caac.gov.cn/XXGK/XXGK/TJSJ/202104/P020210409601938094774.xls,https://en.wikipedia.org/wiki/Gannan_Xiahe_Airport,GXH,ZLXH,"88,502","1,552",(2021)
77,Q81362,Zhangye Ganzhou Airport,ZLZY,YZY,1199515,100.675,38.801944444444,,,213714,235274,http://www.caac.gov.cn/XXGK/XXGK/TJSJ/202104/P020210409601938094774.xls,https://en.wikipedia.org/wiki/Zhangye_Ganzhou_Airport,YZY,ZLZY,"235,274","2,282",(2021)
78,Q5473352,Foshan Shadi Airport,ZGFS,FUO,9498863,113.07083333333,23.0825,,,877725,877725,http://www.caac.gov.cn/XXGK/XXGK/TJSJ/202104/P020210409601938094774.xls,https://en.wikipedia.org/wiki/Foshan_Shadi_Airport,FUO,ZGFS,"604,645","6,154",(2021)
79,Q44868,Guangzhou Baiyun International Airport,ZGGG,CAN,18676605,113.29878611111,23.392436111111,15.24003,3800,73378475,73378475,http://www.caac.gov.cn/XXGK/XXGK/TJSJ/202104/P020210409601938094774.xls,https://en.wikipedia.org/wiki/Guangzhou_Baiyun_International_Airport,CAN,ZGGG,"40,249,679","362,470",(2021)
80,Q3085214,Huizhou Airport,ZGHZ,HUZ,6042852,114.60027778,23.04833333,,,2553545,2553545,https://zh.wikipedia.org/wiki/%E4%B8%AD%E5%8D%8E%E4%BA%BA%E6%B0%91%E5%85%B1%E5%92%8C%E5%9B%BD%E6%9C%BA%E5%9C%BA%E8%BF%90%E8%90%A5%E7%BB%9F%E8%AE%A1%E5%88%97%E8%A1%A8#2019%E5%B9%B4,https://en.wikipedia.org/wiki/Huizhou_Pingtan_Airport,HUZ,ZGHZ,"2,008,153","18,749",(2021)
81,Q652429,Meixian Airport,ZGMX,MXZ,4378800,116.13305555556,24.35,,,672614,672614,http://www.caac.gov.cn/XXGK/XXGK/TJSJ/202104/P020210409601938094774.xls,https://en.wikipedia.org/wiki/Meixian_Airport,MXZ,ZGMX,"440,283","6,139",(2021)
82,Q1060852,Jieyang Chaoshan Airport,ZGOW,SWA,6089400,116.50589,23.568611111111,,,7353521,7353521,https://zh.wikipedia.org/wiki/%E4%B8%AD%E5%8D%8E%E4%BA%BA%E6%B0%91%E5%85%B1%E5%92%8C%E5%9B%BD%E6%9C%BA%E5%9C%BA%E8%BF%90%E8%90%A5%E7%BB%9F%E8%AE%A1%E5%88%97%E8%A1%A8#2019%E5%B9%B4,https://en.wikipedia.org/wiki/Jieyang_Chaoshan_International_Airport,SWA,ZGOW,"5,734,175","50,333",(2021)
83,Q842297,Shenzhen Bao'an International Airport,ZGSZ,SZX,17494398,113.81083333333,22.639444444444,3.9624078,3800,52931925,52931925,http://www.caac.gov.cn/XXGK/XXGK/TJSJ/202104/P020210409601938094774.xls,https://en.wikipedia.org/wiki/Shenzhen_Bao%27an_International_Airport,SZX,ZGSZ,"36,358,185","317,855",(2021)
84,Q2876001,Zhanjiang Airport,ZGZJ,ZHA,6981236,110.35777777778,21.2175,119.4818352,,2983501,2983501,http://www.caac.gov.cn/XXGK/XXGK/TJSJ/202104/P020210409601938094774.xls,https://en.wikipedia.org/wiki/Zhanjiang_Airport,ZHA,ZGZJ,"2,508,238","28,206",(2021)
85,Q2733031,Zhuhai Jinwan Airport,ZGSD,ZUH,2439585,113.3749,22.0105,7.0104138,,12282982,12282982,http://www.caac.gov.cn/XXGK/XXGK/TJSJ/202104/P020210409601938094774.xls,https://en.wikipedia.org/wiki/Zhuhai_Jinwan_Airport,ZUH,ZGSD,"8,020,230[1]","69,073",(2021)
86,Q2901224,Baise Bama Airport,ZGBS,AEB,3669400,106.95916667,23.71944444,45,,225185,225185,https://zh.wikipedia.org/wiki/%E4%B8%AD%E5%8D%8E%E4%BA%BA%E6%B0%91%E5%85%B1%E5%92%8C%E5%9B%BD%E6%9C%BA%E5%9C%BA%E8%BF%90%E8%90%A5%E7%BB%9F%E8%AE%A1%E5%88%97%E8%A1%A8#2019%E5%B9%B4,https://en.wikipedia.org/wiki/Baise_Bama_Airport,AEB,ZGBS,"181,080","2,912",(2021)
87,Q1655239,Beihai Fucheng Airport,ZGBH,BHY,1853227,109.29388888889,21.539444444444,,,2679101,2679101,https://zh.wikipedia.org/wiki/%E4%B8%AD%E5%8D%8E%E4%BA%BA%E6%B0%91%E5%85%B1%E5%92%8C%E5%9B%BD%E6%9C%BA%E5%9C%BA%E8%BF%90%E8%90%A5%E7%BB%9F%E8%AE%A1%E5%88%97%E8%A1%A8#2019%E5%B9%B4,https://en.wikipedia.org/wiki/Beihai_Fucheng_Airport,BHY,ZGBH,"1,889,903","16,174",(2021)
88,Q1197688,Guilin Liangjiang International Airport,ZGKL,KWL,4931137,110.03916666667,25.218055555556,174,,8552654,8732176,http://www.caac.gov.cn/XXGK/XXGK/TJSJ/202104/P020210409601938094774.xls,https://en.wikipedia.org/wiki/Guilin_Liangjiang_International_Airport,KWL,ZGKL,"4,531,212","41,423",(2021)
89,Q3886758,Hechi Jinchengjiang Airport,ZGHC,HCJ,3417945,107.7,24.7839,677,,20963,32211,https://zh.wikipedia.org/wiki/%E4%B8%AD%E5%8D%8E%E4%BA%BA%E6%B0%91%E5%85%B1%E5%92%8C%E5%9B%BD%E6%9C%BA%E5%9C%BA%E8%BF%90%E8%90%A5%E7%BB%9F%E8%AE%A1%E5%88%97%E8%A1%A8#2019%E5%B9%B4,https://en.wikipedia.org/wiki/Hechi_Jinchengjiang_Airport,HCJ,ZGHC,"12,889",438,(2021)
90,Q2232102,Liuzhou Bailian Airport,ZGZH,LZH,4157934,109.39111111111,24.2075,90,,1571055,1571055,https://zh.wikipedia.org/wiki/%E4%B8%AD%E5%8D%8E%E4%BA%BA%E6%B0%91%E5%85%B1%E5%92%8C%E5%9B%BD%E6%9C%BA%E5%9C%BA%E8%BF%90%E8%90%A5%E7%BB%9F%E8%AE%A1%E5%88%97%E8%A1%A8#2019%E5%B9%B4,https://en.wikipedia.org/wiki/Liuzhou_Bailian_Airport,LZH,ZGZH,"1,158,885","11,943",(2021)
91,Q3238350,Nanning Wuxu International Airport,ZGNN,NNG,8741584,108.17244166667,22.608266666667,128,,15762341,15762341,http://www.caac.gov.cn/XXGK/XXGK/TJSJ/202104/P020210409601938094774.xls,https://en.wikipedia.org/wiki/Nanning_Wuxu_International_Airport,NNG,ZGNN,"10,851,498","92,723",(2021)
92,,,,,,,,,,,,,https://en.wikipedia.org/wiki/Wuzhou_Changzhoudao_Airport,WUZ,ZGWZ,,,
93,Q4770684,Anshun Huangguoshu Airport,ZUAS,AVA,2353100,105.87305555556,26.260555555556,,,368934,441391,http://www.caac.gov.cn/XXGK/XXGK/TJSJ/202104/P020210409601938094774.xls,https://en.wikipedia.org/wiki/Anshun_Huangguoshu_Airport,AVA,ZUAS,"69,293",967,(2021)
94,Q597902,Bijie Feixiong Airport,ZUBJ,BFJ,6899636,105.30138889,27.30027778,1448,,1217071,1217071,https://zh.wikipedia.org/wiki/%E4%B8%AD%E5%8D%8E%E4%BA%BA%E6%B0%91%E5%85%B1%E5%92%8C%E5%9B%BD%E6%9C%BA%E5%9C%BA%E8%BF%90%E8%90%A5%E7%BB%9F%E8%AE%A1%E5%88%97%E8%A1%A8#2019%E5%B9%B4,https://en.wikipedia.org/wiki/Bijie_Feixiong_Airport,BFJ,ZUBJ,"552,352","7,490",(2021)
95,Q3243613,Guiyang Longdongbao International Airport,ZUGY,KWE,5987018,106.80083333333,26.538611111111,1139,,21910911,21910911,https://zh.wikipedia.org/wiki/%E4%B8%AD%E5%8D%8E%E4%BA%BA%E6%B0%91%E5%85%B1%E5%92%8C%E5%9B%BD%E6%9C%BA%E5%9C%BA%E8%BF%90%E8%90%A5%E7%BB%9F%E8%AE%A1%E5%88%97%E8%A1%A8#2019%E5%B9%B4,https://en.wikipedia.org/wiki/Guiyang_Longdongbao_International_Airport,KWE,ZUGY,"16,964,158","134,639",(2021)
96,Q6347960,Kaili Huangping Airport,ZUKJ,KJH,522622,107.98055556,26.97416667,,,94791,425155,https://zh.wikipedia.org/wiki/%E4%B8%AD%E5%8D%8E%E4%BA%BA%E6%B0%91%E5%85%B1%E5%92%8C%E5%9B%BD%E6%9C%BA%E5%9C%BA%E8%BF%90%E8%90%A5%E7%BB%9F%E8%AE%A1%E5%88%97%E8%A1%A8#2019%E5%B9%B4,https://en.wikipedia.org/wiki/Kaili_Huangping_Airport,KJH,ZUKJ,"155,964","33,617",(2021)
97,Q6542332,Libo Airport,ZULB,LLB,144865,107.96166666667,25.4525,,,155182,182668,https://zh.wikipedia.org/wiki/%E4%B8%AD%E5%8D%8E%E4%BA%BA%E6%B0%91%E5%85%B1%E5%92%8C%E5%9B%BD%E6%9C%BA%E5%9C%BA%E8%BF%90%E8%90%A5%E7%BB%9F%E8%AE%A1%E5%88%97%E8%A1%A8#2019%E5%B9%B4,https://en.wikipedia.org/wiki/Libo_Airport,LLB,ZULB,"71,783",952,(2021)
98,Q6556440,Liping Airport,ZUNP,HZH,391047,109.15166666667,26.322777777778,,,20064,93382,http://www.caac.gov.cn/XXGK/XXGK/TJSJ/202104/P020210409601938094774.xls,https://en.wikipedia.org/wiki/Liping_Airport,HZH,ZUNP,"50,456","10,004",(2021)
99,Q6654081,Liupanshui Yuezhao Airport,ZUPS,LPF,3031602,104.979,26.6064,,,323636,430977,http://www.caac.gov.cn/XXGK/XXGK/TJSJ/202104/P020210409601938094774.xls,https://en.wikipedia.org/wiki/Liupanshui_Yuezhao_Airport,LPF,ZUPS,"114,850","2,123",(2021)
100,Q1019297,Tongren Fenghuang Airport,ZUTR,TEN,3168800,109.30888888889,27.883333333333,,,924490,1344928,http://www.caac.gov.cn/XXGK/XXGK/TJSJ/202104/P020210409601938094774.xls,https://en.wikipedia.org/wiki/Tongren_Fenghuang_Airport,TEN,ZUTR,"528,431","6,052",(2021)
101,Q1937984,Xingyi Wanfenglin Airport,ZUYI,ACX,1004132,104.95861111111,25.088333333333,,,1384614,1384614,http://www.caac.gov.cn/XXGK/XXGK/TJSJ/202104/P020210409601938094774.xls,https://en.wikipedia.org/wiki/Xingyi_Wanfenglin_Airport,ACX,ZUYI,"1,001,683","11,783",(2021)
102,Q7313215,Renhuai Maotai Airport,ZUMT,WMT,679624,106.438,27.967,1240,,1652124,1652124,https://zh.wikipedia.org/wiki/%E4%B8%AD%E5%8D%8E%E4%BA%BA%E6%B0%91%E5%85%B1%E5%92%8C%E5%9B%BD%E6%9C%BA%E5%9C%BA%E8%BF%90%E8%90%A5%E7%BB%9F%E8%AE%A1%E5%88%97%E8%A1%A8#2019%E5%B9%B4,https://en.wikipedia.org/wiki/Zunyi_Maotai_Airport,WMT,ZUMT,"1,413,381","16,104",(2021)
103,Q8075311,Zunyi Xinzhou Airport,ZUZY,ZYI,6606675,106.99972222222,27.59,,,2257147,2257147,https://zh.wikipedia.org/wiki/%E4%B8%AD%E5%8D%8E%E4%BA%BA%E6%B0%91%E5%85%B1%E5%92%8C%E5%9B%BD%E6%9C%BA%E5%9C%BA%E8%BF%90%E8%90%A5%E7%BB%9F%E8%AE%A1%E5%88%97%E8%A1%A8#2019%E5%B9%B4,https://en.wikipedia.org/wiki/Zunyi_Xinzhou_Airport,ZYI,ZUZY,"1,292,664","13,743",(2021)
104,Q1143116,Haikou Meilan International Airport,ZJHK,HAK,2873358,110.45888888889,19.934722222222,23,,24216552,24216552,https://zh.wikipedia.org/wiki/%E4%B8%AD%E5%8D%8E%E4%BA%BA%E6%B0%91%E5%85%B1%E5%92%8C%E5%9B%BD%E6%9C%BA%E5%9C%BA%E8%BF%90%E8%90%A5%E7%BB%9F%E8%AE%A1%E5%88%97%E8%A1%A8#2019%E5%B9%B4,https://en.wikipedia.org/wiki/Haikou_Meilan_International_Airport,HAK,ZJHK[1],"17,519,708",,(2021)
105,Q7267894,Qionghai Bo'ao Airport,ZJQH,BAR,528238,110.45888889,19.14055556,,,558674,702609,http://www.caac.gov.cn/XXGK/XXGK/TJSJ/202104/P020210409601938094774.xls,https://en.wikipedia.org/wiki/Qionghai_Bo%27ao_Airport,BAR,ZJQH,"702,609","16,952",(2021)
106,Q684964,Sanya Phoenix International Airport,ZJSY,SYX,1031396,109.41227222222,18.302897222222,27,,20163655,20163655,https://zh.wikipedia.org/wiki/%E4%B8%AD%E5%8D%8E%E4%BA%BA%E6%B0%91%E5%85%B1%E5%92%8C%E5%9B%BD%E6%9C%BA%E5%9C%BA%E8%BF%90%E8%90%A5%E7%BB%9F%E8%AE%A1%E5%88%97%E8%A1%A8#2019%E5%B9%B4,https://en.wikipedia.org/wiki/Sanya_Phoenix_International_Airport,SYX,ZJSY,"16,629,950","116,066",(2021)
107,Q1708305,Chengde Airport,ZBCD,CDE,,118.072488,41.121942,,,424397,436893,http://www.caac.gov.cn/XXGK/XXGK/TJSJ/202104/P020210409601938094774.xls,https://en.wikipedia.org/wiki/Chengde_Puning_Airport,CDE,ZBCD,"294,900","2,583",(2021)
108,Q3888055,Handan Airport,ZBHD,HDG,9413990,114.43,36.52388889,,,970700,970700,https://zh.wikipedia.org/wiki/%E4%B8%AD%E5%8D%8E%E4%BA%BA%E6%B0%91%E5%85%B1%E5%92%8C%E5%9B%BD%E6%9C%BA%E5%9C%BA%E8%BF%90%E8%90%A5%E7%BB%9F%E8%AE%A1%E5%88%97%E8%A1%A8#2019%E5%B9%B4,https://en.wikipedia.org/wiki/Handan_Airport,HDG,ZBHD,"623,633","49,534",(2021)
109,Q2628900,Qinhuangdao Shanhaiguan Airport,ZBSH,SHP,3146300,119.73111111111,39.968055555556,,,,207947,https://zh.wikipedia.org/wiki/中华人民共和国机场运营统计列表,https://en.wikipedia.org/wiki/Qinhuangdao_Shanhaiguan_Airport,SHP,ZBSH,"156,000",,(2015)
110,Q2421203,Shijiazhuang Zhengding International Airport,ZBSJ,SJW,10640458,114.69666666667,38.280833333333,71,3400,11922801,11922801,https://zh.wikipedia.org/wiki/%E4%B8%AD%E5%8D%8E%E4%BA%BA%E6%B0%91%E5%85%B1%E5%92%8C%E5%9B%BD%E6%9C%BA%E5%9C%BA%E8%BF%90%E8%90%A5%E7%BB%9F%E8%AE%A1%E5%88%97%E8%A1%A8#2019%E5%B9%B4,https://en.wikipedia.org/wiki/Shijiazhuang_Zhengding_International_Airport,SJW,ZBSJ,"6,451,083","53,605[1]",(2021)
111,Q4451353,Tangshan Sannühe Airport,ZBTS,TVS,7717983,117.99333333333,39.725277777778,,,505175,574333,http://www.caac.gov.cn/XXGK/XXGK/TJSJ/202104/P020210409601938094774.xls,https://en.wikipedia.org/wiki/Tangshan_Sann%C3%BChe_Airport,TVS,ZBTS,"394,365","4,610",(2021)
112,Q8070469,Zhangjiakou Ningyuan Airport,ZBZJ,ZQZ,4118908,114.93083333333,40.739166666667,,,304009,600658,http://www.caac.gov.cn/XXGK/XXGK/TJSJ/202104/P020210409601938094774.xls,https://en.wikipedia.org/wiki/Zhangjiakou_Ningyuan_Airport,ZQZ,ZBZJ,"464,638","4,617",(2021)
113,Q1708725,Daqing Sartu Airport,ZYDQ,DQA,2781562,125.22833333,46.58722222,,,858021,858021,https://zh.wikipedia.org/wiki/%E4%B8%AD%E5%8D%8E%E4%BA%BA%E6%B0%91%E5%85%B1%E5%92%8C%E5%9B%BD%E6%9C%BA%E5%9C%BA%E8%BF%90%E8%90%A5%E7%BB%9F%E8%AE%A1%E5%88%97%E8%A1%A8#2019%E5%B9%B4,https://en.wikipedia.org/wiki/Daqing_Sartu_Airport,DQA,ZYDQ,"727,823","6,649",(2021)
114,Q4073698,Fuyuan Dongji Airport,ZYFY,FYJ,480000,134.36644722,48.19949444,,,54435,65148,http://www.caac.gov.cn/XXGK/XXGK/TJSJ/202104/P020210409601938094774.xls,https://en.wikipedia.org/wiki/Fuyuan_Dongji_Airport,FYJ,ZYFY,"27,013",518,(2021)
115,Q1156786,Harbin Taiping International Airport,ZYHB,HRB,10009854,126.25032777778,45.623402777778,139,3200,20779745,20779745,https://zh.wikipedia.org/wiki/%E4%B8%AD%E5%8D%8E%E4%BA%BA%E6%B0%91%E5%85%B1%E5%92%8C%E5%9B%BD%E6%9C%BA%E5%9C%BA%E8%BF%90%E8%90%A5%E7%BB%9F%E8%AE%A1%E5%88%97%E8%A1%A8#2019%E5%B9%B4,https://en.wikipedia.org/wiki/Harbin_Taiping_International_Airport,HRB,ZYHB,"13,502,030",,(2021)
116,Q3504538,Heihe Aihui Airport,ZYHE,HEK,1673899,127.36078,50.20235,312,,215947,215947,http://www.caac.gov.cn/XXGK/XXGK/TJSJ/202104/P020210409601938094774.xls,https://en.wikipedia.org/wiki/Heihe_Aihui_Airport,HEK,ZYHE,"158,192","2,469",(2021)
117,Q2902604,Jiagedaqi Airport,ZYJD,JGD,,124.1175,50.371389,,,182783,182783,https://zh.wikipedia.org/wiki/%E4%B8%AD%E5%8D%8E%E4%BA%BA%E6%B0%91%E5%85%B1%E5%92%8C%E5%9B%BD%E6%9C%BA%E5%9C%BA%E8%BF%90%E8%90%A5%E7%BB%9F%E8%AE%A1%E5%88%97%E8%A1%A8#2019%E5%B9%B4,https://en.wikipedia.org/wiki/Jiagedaqi_Airport,JGD,ZYJD,"175,561","2,451",(2021)
118,Q2661353,Jiamusi Dongjiao Airport,ZYJM,JMU,2552097,130.46527777778,46.843333333333,80,,787594,865076,https://zh.wikipedia.org/wiki/%E4%B8%AD%E5%8D%8E%E4%BA%BA%E6%B0%91%E5%85%B1%E5%92%8C%E5%9B%BD%E6%9C%BA%E5%9C%BA%E8%BF%90%E8%90%A5%E7%BB%9F%E8%AE%A1%E5%88%97%E8%A1%A8#2019%E5%B9%B4,https://en.wikipedia.org/wiki/Jiamusi_Dongjiao_Airport,JMU,ZYJM,"805,076","6,968",(2021)
119,Q14943727,Jiansanjiang Shidi Airport,ZYJS,JSJ,180000,132.660278,47.11,,,129866,129866,http://www.caac.gov.cn/XXGK/XXGK/TJSJ/202104/P020210409601938094774.xls,https://en.wikipedia.org/wiki/Jiansanjiang_Shidi_Airport,JSJ,ZYJS,"71,460","1,868",(2021)
120,Q2901204,Jixi Xingkaihu Airport,ZYJX,JXA,1862165,130.99666667,45.30611111,,,274482,274482,https://zh.wikipedia.org/wiki/%E4%B8%AD%E5%8D%8E%E4%BA%BA%E6%B0%91%E5%85%B1%E5%92%8C%E5%9B%BD%E6%9C%BA%E5%9C%BA%E8%BF%90%E8%90%A5%E7%BB%9F%E8%AE%A1%E5%88%97%E8%A1%A8#2019%E5%B9%B4,https://en.wikipedia.org/wiki/Jixi_Xingkaihu_Airport,JXA,ZYJX,"252,422","2,657",(2021)
121,Q1006900,Mohe Gulian Airport,ZYMH,OHE,83414,122.42055556,52.92111111,579,,84697,118435,http://www.caac.gov.cn/XXGK/XXGK/TJSJ/202104/P020210409601938094774.xls,https://en.wikipedia.org/wiki/Mohe_Gulian_Airport,OHE,ZYMH,"14,458",298,(2021)
122,Q1209229,Mudanjiang Hailang International Airport,ZYMD,MDG,2290208,129.56888888889,44.524166666667,269,,1048088,1048088,http://www.caac.gov.cn/XXGK/XXGK/TJSJ/202104/P020210409601938094774.xls,https://en.wikipedia.org/wiki/Mudanjiang_Hailang_International_Airport,MDG,ZYMD,"757,451","6,776",(2021)
123,Q3267548,Qiqihar Sanjiazi Airport,ZYQQ,NDG,4067489,123.91805555556,47.239722222222,145,,446650,446650,http://www.caac.gov.cn/XXGK/XXGK/TJSJ/202104/P020210409601938094774.xls,https://en.wikipedia.org/wiki/Qiqihar_Sanjiazi_Airport,NDG,ZYQQ,"390,683","3,692",(2021)
124,Q16259671,Wudalianchi Airport,ZYDU,DTU,360000,126.133,48.445,300,,62942,62942,https://zh.wikipedia.org/wiki/%E4%B8%AD%E5%8D%8E%E4%BA%BA%E6%B0%91%E5%85%B1%E5%92%8C%E5%9B%BD%E6%9C%BA%E5%9C%BA%E8%BF%90%E8%90%A5%E7%BB%9F%E8%AE%A1%E5%88%97%E8%A1%A8#2019%E5%B9%B4,https://en.wikipedia.org/wiki/Wudalianchi_Dedu_Airport,DTU[1],ZYDU,"34,084",814,(2021)
125,Q2617942,Yichun Lindu Airport,ZYLD,LDS,1148126,129.01888888889,47.751944444444,241,,161776,162113,http://www.caac.gov.cn/XXGK/XXGK/TJSJ/202104/P020210409601938094774.xls,https://en.wikipedia.org/wiki/Yichun_Lindu_Airport,LDS,ZYLD,"127,546","1,588",(2021)
126,Q2507600,Luoyang Beijiao Airport,ZHLY,LYA,7056699,112.38783333333,34.741277777778,256,,1537355,1537355,https://zh.wikipedia.org/wiki/%E4%B8%AD%E5%8D%8E%E4%BA%BA%E6%B0%91%E5%85%B1%E5%92%8C%E5%9B%BD%E6%9C%BA%E5%9C%BA%E8%BF%90%E8%90%A5%E7%BB%9F%E8%AE%A1%E5%88%97%E8%A1%A8#2019%E5%B9%B4,https://en.wikipedia.org/wiki/Luoyang_Beijiao_Airport,LYA,ZHLY,"1,237,795","226,214",(2021)
127,Q1937997,Nanyang Jiangying Airport,ZHNY,NNY,9713112,112.61527777778,32.980833333333,,,1177895,1177895,https://zh.wikipedia.org/wiki/%E4%B8%AD%E5%8D%8E%E4%BA%BA%E6%B0%91%E5%85%B1%E5%92%8C%E5%9B%BD%E6%9C%BA%E5%9C%BA%E8%BF%90%E8%90%A5%E7%BB%9F%E8%AE%A1%E5%88%97%E8%A1%A8#2019%E5%B9%B4,https://en.wikipedia.org/wiki/Nanyang_Jiangying_Airport,NNY,ZHNY,"1,067,753","53,774",(2021)
128,Q4420544,Xinyang Minggang Airport,ZHXY,XAI,6234401,114.07777777778,32.541388888889,,,728493,732361,https://zh.wikipedia.org/wiki/%E4%B8%AD%E5%8D%8E%E4%BA%BA%E6%B0%91%E5%85%B1%E5%92%8C%E5%9B%BD%E6%9C%BA%E5%9C%BA%E8%BF%90%E8%90%A5%E7%BB%9F%E8%AE%A1%E5%88%97%E8%A1%A8#2019%E5%B9%B4,https://en.wikipedia.org/wiki/Xinyang_Minggang_Airport,XAI,ZHXY,"654,208","14,381",(2021)
129,Q2034869,Zhengzhou Xinzheng International Airport,ZHCC,CGO,12600574,113.84083333333,34.519722222222,151,,29129328,29129328,http://www.caac.gov.cn/XXGK/XXGK/TJSJ/202104/P020210409601938094774.xls,https://en.wikipedia.org/wiki/Zhengzhou_Xinzheng_International_Airport,CGO,ZHCC,"18,954,907","161,162",(2021)
130,Q1937966,Enshi Xujiaping Airport,ZHES,ENH,3456136,109.485,30.320277777778,,,1426920,1426920,http://www.caac.gov.cn/XXGK/XXGK/TJSJ/202104/P020210409601938094774.xls,https://en.wikipedia.org/wiki/Enshi_Xujiaping_Airport,ENH,ZHES,"1,301,477","13,370",(2021)
131,Q795096,Shennongjia Airport,ZHSN,HPG,76100,110.33805556,31.63361111,2580,,44446,44446,https://zh.wikipedia.org/wiki/%E4%B8%AD%E5%8D%8E%E4%BA%BA%E6%B0%91%E5%85%B1%E5%92%8C%E5%9B%BD%E6%9C%BA%E5%9C%BA%E8%BF%90%E8%90%A5%E7%BB%9F%E8%AE%A1%E5%88%97%E8%A1%A8#2019%E5%B9%B4,https://en.wikipedia.org/wiki/Shennongjia_Hongping_Airport,HPG,ZHSN,"20,263",688,(2021)
132,Q795368,Shiyan Wudangshan Airport,ZHSY,WDS,3398000,110.90777778,32.59166667,,,1524107,1524107,https://zh.wikipedia.org/wiki/%E4%B8%AD%E5%8D%8E%E4%BA%BA%E6%B0%91%E5%85%B1%E5%92%8C%E5%9B%BD%E6%9C%BA%E5%9C%BA%E8%BF%90%E8%90%A5%E7%BB%9F%E8%AE%A1%E5%88%97%E8%A1%A8#2019%E5%B9%B4,https://en.wikipedia.org/wiki/Shiyan_Wudangshan_Airport,WDS,ZHSY,"1,132,398","13,930",(2021)
133,Q601091,Wuhan Tianhe International Airport,ZHHH,WUH,12326518,114.20805555556,30.783611111111,34.4424678,3600,27150246,27150246,http://www.caac.gov.cn/XXGK/XXGK/TJSJ/202104/P020210409601938094774.xls,https://en.wikipedia.org/wiki/Wuhan_Tianhe_International_Airport,WUH,ZHHH,"19,796,618","174,565",(2021)
134,Q1937955,Xiangyang Liuji Airport,ZHXF,XFN,5260951,112.29055555556,32.15,,,1899458,1899458,https://zh.wikipedia.org/wiki/%E4%B8%AD%E5%8D%8E%E4%BA%BA%E6%B0%91%E5%85%B1%E5%92%8C%E5%9B%BD%E6%9C%BA%E5%9C%BA%E8%BF%90%E8%90%A5%E7%BB%9F%E8%AE%A1%E5%88%97%E8%A1%A8#2019%E5%B9%B4,https://en.wikipedia.org/wiki/Xiangyang_Liuji_Airport,XFN,ZHXF,"1,742,022","71,531",(2021)
135,Q2233112,Yichang Airport,ZHYC,YIH,4017607,111.47994444444,30.556472222222,205,,3263912,3263912,https://zh.wikipedia.org/wiki/%E4%B8%AD%E5%8D%8E%E4%BA%BA%E6%B0%91%E5%85%B1%E5%92%8C%E5%9B%BD%E6%9C%BA%E5%9C%BA%E8%BF%90%E8%90%A5%E7%BB%9F%E8%AE%A1%E5%88%97%E8%A1%A8#2019%E5%B9%B4,https://en.wikipedia.org/wiki/Yichang_Sanxia_Airport,YIH,ZHYC,"2,201,505","83,810",(2021)
136,Q1000025,Changde Taohuayuan Airport,ZGCD,CGD,5279102,111.64,28.9189,,,1106061,1106061,http://www.caac.gov.cn/XXGK/XXGK/TJSJ/202104/P020210409601938094774.xls,https://en.wikipedia.org/wiki/Changde_Taohuayuan_Airport,CGD,ZGCD,"1,008,348","60,030",(2021)
137,Q1330618,Changsha Huanghua International Airport,ZGHA,CSX,10047914,113.22083333333,28.196666666667,67,3200,26911393,26911393,http://www.caac.gov.cn/XXGK/XXGK/TJSJ/202104/P020210409601938094774.xls,https://en.wikipedia.org/wiki/Changsha_Huanghua_International_Airport,CSX,ZGHA,"19,983,064","162,977",(2021)
138,Q3887015,Hengyang Nanyue Airport,ZGHY,HNY,6645243,112.618,26.7239,,,1102857,1102857,https://zh.wikipedia.org/wiki/%E4%B8%AD%E5%8D%8E%E4%BA%BA%E6%B0%91%E5%85%B1%E5%92%8C%E5%9B%BD%E6%9C%BA%E5%9C%BA%E8%BF%90%E8%90%A5%E7%BB%9F%E8%AE%A1%E5%88%97%E8%A1%A8#2019%E5%B9%B4,https://en.wikipedia.org/wiki/Hengyang_Nanyue_Airport,HNY,ZGHY,"928,054","11,734",(2021)
139,Q3280881,Huaihua Zhijiang Airport,ZGCJ,HJJ,4587594,109.69972222222,27.441388888889,,,606477,606477,http://www.caac.gov.cn/XXGK/XXGK/TJSJ/202104/P020210409601938094774.xls,https://en.wikipedia.org/wiki/Huaihua_Zhijiang_Airport,HJJ,ZGCJ,"349,195","32,886",(2021)
140,Q16259568,Shaoyang Wugang Airport,ZGSY,WGN,6563520,110.642,26.802,440,,386367,469694,https://zh.wikipedia.org/wiki/%E4%B8%AD%E5%8D%8E%E4%BA%BA%E6%B0%91%E5%85%B1%E5%92%8C%E5%9B%BD%E6%9C%BA%E5%9C%BA%E8%BF%90%E8%90%A5%E7%BB%9F%E8%AE%A1%E5%88%97%E8%A1%A8#2019%E5%B9%B4,https://en.wikipedia.org/wiki/Shaoyang_Wugang_Airport,WGN,ZGSY,"302,563","4,250",(2021)
141,Q8055062,Yongzhou Lingling Airport,ZGLG,LLF,5452100,111.61222222222,26.345555555556,,,70849,250102,https://zh.wikipedia.org/wiki/%E4%B8%AD%E5%8D%8E%E4%BA%BA%E6%B0%91%E5%85%B1%E5%92%8C%E5%9B%BD%E6%9C%BA%E5%9C%BA%E8%BF%90%E8%90%A5%E7%BB%9F%E8%AE%A1%E5%88%97%E8%A1%A8#2019%E5%B9%B4,https://en.wikipedia.org/wiki/Yongzhou_Lingling_Airport,LLF,ZGLG,"165,801","1,998",(2021)
142,Q16259710,Yueyang Sanhe Airport,ZGYY,YYA,5051922,113.2818,29.3137,70,,556266,810591,http://www.caac.gov.cn/XXGK/XXGK/TJSJ/202104/P020210409601938094774.xls,https://en.wikipedia.org/wiki/Yueyang_Sanhe_Airport,YYA,ZGYY,"810,591","10,168",(2021)
143,Q1134280,Zhangjiajie Hehua Airport,ZGDY,DYG,1517027,110.44333333333,29.103055555556,,,2870898,2870898,https://zh.wikipedia.org/wiki/%E4%B8%AD%E5%8D%8E%E4%BA%BA%E6%B0%91%E5%85%B1%E5%92%8C%E5%9B%BD%E6%9C%BA%E5%9C%BA%E8%BF%90%E8%90%A5%E7%BB%9F%E8%AE%A1%E5%88%97%E8%A1%A8#2019%E5%B9%B4,https://en.wikipedia.org/wiki/Zhangjiajie_Hehua_International_Airport,DYG,ZGDY,"1,433,164","14,722",(2021)
144,Q16258986,Alxa Left Banner Bayanhot Airport,ZBAL,AXF,231334,105.62616,38.82286,1390,,156042,165858,http://www.caac.gov.cn/XXGK/XXGK/TJSJ/202104/P020210409601938094774.xls,https://en.wikipedia.org/wiki/Alxa_Left_Banner_Bayanhot_Airport,AXF,ZBAL,"66,151","1,796",(2021)
145,Q16258989,Alxa Right Banner Badanjilin Airport,ZBAR,RHT,25430,101.644,39.2133,1420,,13508,21458,http://www.caac.gov.cn/XXGK/XXGK/TJSJ/202104/P020210409601938094774.xls,https://en.wikipedia.org/wiki/Alxa_Right_Banner_Badanjilin_Airport,RHT,ZBAR,"2,191",105,(2021)
146,Q2901996,Arxan Yi'ershi Airport,ZBES,YIE,68311,119.912,47.3106,,,104036,155187,http://www.caac.gov.cn/XXGK/XXGK/TJSJ/202104/P020210409601938094774.xls,https://en.wikipedia.org/wiki/Arxan_Yi%27ershi_Airport,YIE,ZBES,"52,860","1,242",(2021)
147,Q1930670,Baotou Erliban Airport,ZBOW,BAV,2709378,109.99666666667,40.559722222222,1012,,2265867,2265867,https://zh.wikipedia.org/wiki/%E4%B8%AD%E5%8D%8E%E4%BA%BA%E6%B0%91%E5%85%B1%E5%92%8C%E5%9B%BD%E6%9C%BA%E5%9C%BA%E8%BF%90%E8%90%A5%E7%BB%9F%E8%AE%A1%E5%88%97%E8%A1%A8#2019%E5%B9%B4,https://en.wikipedia.org/wiki/Baotou_Donghe_Airport,BAV,ZBOW,"1,336,911","14,320",(2021)
148,Q2264506,Bayannur Tianjitai Airport,ZBYZ,RLK,1669915,107.73888889,40.92638889,,,428865,428865,http://www.caac.gov.cn/XXGK/XXGK/TJSJ/202104/P020210409601938094774.xls,https://en.wikipedia.org/wiki/Bayannur_Tianjitai_Airport,RLK,ZBYZ,"249,299","4,145",(2021)
149,Q1708732,Chifeng Yulong Airport,ZBCF,CIF,4035967,118.90833333333,42.235,615,,1893600,1893600,https://zh.wikipedia.org/wiki/%E4%B8%AD%E5%8D%8E%E4%BA%BA%E6%B0%91%E5%85%B1%E5%92%8C%E5%9B%BD%E6%9C%BA%E5%9C%BA%E8%BF%90%E8%90%A5%E7%BB%9F%E8%AE%A1%E5%88%97%E8%A1%A8#2019%E5%B9%B4,https://en.wikipedia.org/wiki/Chifeng_Yulong_Airport,CIF,ZBCF,"1,421,971","13,727",(2021)
150,Q16259133,Ejin Banner Taolai Airport,ZBEN,EJN,32410,101.00195,42.0156,935,,21549,26370,http://www.caac.gov.cn/XXGK/XXGK/TJSJ/202104/P020210409601938094774.xls,https://en.wikipedia.org/wiki/Ejin_Banner_Taolai_Airport,EJN,ZBEN,"5,811",241,(2021)
151,Q1108990,Erenhot Saiwusu International Airport,ZBER,ERL,74179,112.09833333,43.42666667,,,231969,231969,https://zh.wikipedia.org/wiki/%E4%B8%AD%E5%8D%8E%E4%BA%BA%E6%B0%91%E5%85%B1%E5%92%8C%E5%9B%BD%E6%9C%BA%E5%9C%BA%E8%BF%90%E8%90%A5%E7%BB%9F%E8%AE%A1%E5%88%97%E8%A1%A8#2019%E5%B9%B4,https://en.wikipedia.org/wiki/Erenhot_Saiwusu_International_Airport,ERL,ZBER,"91,003","2,178",(2021)
152,Q1018047,Hulunbuir Hailar Airport,ZBLA,HLD,344934,119.825,49.205,661,,2558413,2558413,http://www.caac.gov.cn/XXGK/XXGK/TJSJ/202104/P020210409601938094774.xls,https://en.wikipedia.org/wiki/Hulunbuir_Hailar_Airport,HLD,ZBLA,"1,825,229","17,076",(2021)
153,Q3238282,Hohhot Baita International Airport,ZBHH,HET,3446100,111.82410277778,40.851422222222,1084,,13151840,13151840,http://www.caac.gov.cn/XXGK/XXGK/TJSJ/202104/P020210409601938094774.xls,https://en.wikipedia.org/wiki/Hohhot_Baita_International_Airport,HET,ZBHH,"9,006,388","84,325",(2021)
154,Q35267134,Huolinhe Airport,ZBHZ,HUO,,119.40851,45.48673,,,83973,100227,http://www.caac.gov.cn/XXGK/XXGK/TJSJ/202104/P020210409601938094774.xls,https://en.wikipedia.org/wiki/Holingol_Huolinhe_Airport,HUO,ZBHZ,"100,227","1,896",(2021)
155,Q1031116,Manzhouli Xijiao Airport,ZBMZ,NZH,249472,117.33,49.566666666667,,2800,375069,501682,http://www.caac.gov.cn/XXGK/XXGK/TJSJ/202104/P020210409601938094774.xls,https://en.wikipedia.org/wiki/Manzhouli_Xijiao_Airport,NZH,ZBMZ,"245,955","2,802",(2021)
156,Q3538450,Ordos Ejin Horo Airport,ZBDS,DSN,2153638,109.86222222222,39.493888888889,,,2695925,2695925,http://www.caac.gov.cn/XXGK/XXGK/TJSJ/202104/P020210409601938094774.xls,https://en.wikipedia.org/wiki/Ordos_Ejin_Horo_International_Airport,DSN,ZBDS,"1,502,958","29,828",(2021)
157,Q1018059,Tongliao Airport,ZBTL,TGO,2873168,122.2,43.5569,730,,1128515,1128515,https://zh.wikipedia.org/wiki/%E4%B8%AD%E5%8D%8E%E4%BA%BA%E6%B0%91%E5%85%B1%E5%92%8C%E5%9B%BD%E6%9C%BA%E5%9C%BA%E8%BF%90%E8%90%A5%E7%BB%9F%E8%AE%A1%E5%88%97%E8%A1%A8#2019%E5%B9%B4,https://en.wikipedia.org/wiki/Tongliao_Airport,TGO,ZBTL,"938,125","12,107",(2021)
158,Q3500235,Ulanhot Yilelite Airport,ZBUL,HLH,327081,122.008,46.1953,,,845020,845020,https://zh.wikipedia.org/wiki/%E4%B8%AD%E5%8D%8E%E4%BA%BA%E6%B0%91%E5%85%B1%E5%92%8C%E5%9B%BD%E6%9C%BA%E5%9C%BA%E8%BF%90%E8%90%A5%E7%BB%9F%E8%AE%A1%E5%88%97%E8%A1%A8#2019%E5%B9%B4,https://en.wikipedia.org/wiki/Ulanhot_Yilelite_Airport,HLH,ZBUL,"717,507","3,1581",(2021)
159,Q16259658,Ulanqab Jining Airport,ZBUC,UCB,1706328,113.10802,41.1298,,,164782,395951,http://www.caac.gov.cn/XXGK/XXGK/TJSJ/202104/P020210409601938094774.xls,https://en.wikipedia.org/wiki/Ulanqab_Jining_Airport,UCB[1],ZBUC,"44,571","2,299",(2021)
160,Q1937357,Wuhai Airport,ZWUH,WUA,532902,106.80333333333,39.791944444444,,,524168,524168,http://www.caac.gov.cn/XXGK/XXGK/TJSJ/202104/P020210409601938094774.xls,https://en.wikipedia.org/wiki/Wuhai_Airport,WUA,ZWUH,"451,489","4,858",(2021)
161,Q1018053,Xilinhot Airport,ZBXH,XIL,349953,115.964,43.9167,,,756113,756113,http://www.caac.gov.cn/XXGK/XXGK/TJSJ/202104/P020210409601938094774.xls,https://en.wikipedia.org/wiki/Xilinhot_Airport,XIL,ZBXH,"603,379","24,895",(2021)
162,Q14594698,Zhalantun Chengjisihan Airport,ZBZL,NZL,318933,122.7675,47.86583333,,,141173,152450,https://zh.wikipedia.org/wiki/%E4%B8%AD%E5%8D%8E%E4%BA%BA%E6%B0%91%E5%85%B1%E5%92%8C%E5%9B%BD%E6%9C%BA%E5%9C%BA%E8%BF%90%E8%90%A5%E7%BB%9F%E8%AE%A1%E5%88%97%E8%A1%A8#2019%E5%B9%B4,https://en.wikipedia.org/wiki/Zhalantun_Chengjisihan_Airport,NZL,ZBZL,"152,450","54,972",(2021)
163,Q1837451,Changzhou Benniu Airport,ZSCG,CZX,5278121,119.77603,31.919276,,,4052342,4052342,https://zh.wikipedia.org/wiki/%E4%B8%AD%E5%8D%8E%E4%BA%BA%E6%B0%91%E5%85%B1%E5%92%8C%E5%9B%BD%E6%9C%BA%E5%9C%BA%E8%BF%90%E8%90%A5%E7%BB%9F%E8%AE%A1%E5%88%97%E8%A1%A8#2019%E5%B9%B4,https://en.wikipedia.org/wiki/Changzhou_Benniu_International_Airport,CZX,ZSCG,"2,923,644","50,739",(2021)
164,Q3206675,Huai'an Lianshui Airport,ZSSH,HIA,4556230,119.14777778,33.77722222,7,,2347566,2347566,https://zh.wikipedia.org/wiki/%E4%B8%AD%E5%8D%8E%E4%BA%BA%E6%B0%91%E5%85%B1%E5%92%8C%E5%9B%BD%E6%9C%BA%E5%9C%BA%E8%BF%90%E8%90%A5%E7%BB%9F%E8%AE%A1%E5%88%97%E8%A1%A8#2019%E5%B9%B4,https://en.wikipedia.org/wiki/Huai%27an_Lianshui_International_Airport,HIA,ZSSH,"1,404,683","31,194",(2021)
165,Q2235396,Lianyungang Airport,ZSLG,LYG,4599360,118.87361111111,34.571666666667,,,1922824,1922824,https://zh.wikipedia.org/wiki/%E4%B8%AD%E5%8D%8E%E4%BA%BA%E6%B0%91%E5%85%B1%E5%92%8C%E5%9B%BD%E6%9C%BA%E5%9C%BA%E8%BF%90%E8%90%A5%E7%BB%9F%E8%AE%A1%E5%88%97%E8%A1%A8#2019%E5%B9%B4,https://en.wikipedia.org/wiki/Lianyungang_Baitabu_Airport,LYG,ZSLG,"1,233,272","15,116",(2021)
166,Q559107,Nanjing Lukou International Airport,ZSNJ,NKG,9314685,118.86194444444,31.742222222222,14.9352294,3600,30581685,30581685,https://zh.wikipedia.org/wiki/%E4%B8%AD%E5%8D%8E%E4%BA%BA%E6%B0%91%E5%85%B1%E5%92%8C%E5%9B%BD%E6%9C%BA%E5%9C%BA%E8%BF%90%E8%90%A5%E7%BB%9F%E8%AE%A1%E5%88%97%E8%A1%A8#2019%E5%B9%B4,https://en.wikipedia.org/wiki/Nanjing_Lukou_International_Airport,NKG,ZSNJ,"17,606,886","161,896",(2021)
167,Q860300,Nantong Xingdong Airport,ZSNT,NTG,7726635,120.97555555556,32.070833333333,,,3484484,3484484,http://www.caac.gov.cn/XXGK/XXGK/TJSJ/202104/P020210409601938094774.xls,https://en.wikipedia.org/wiki/Nantong_Xingdong_International_Airport,NTG,ZSNT,"2,525,426","27,294",(2021)
168,Q1433255,Sunan Shuofang International Airport,ZSWX,WUX,12748262,120.42944444444,31.494444444444,5,,7973446,7973446,https://zh.wikipedia.org/wiki/%E4%B8%AD%E5%8D%8E%E4%BA%BA%E6%B0%91%E5%85%B1%E5%92%8C%E5%9B%BD%E6%9C%BA%E5%9C%BA%E8%BF%90%E8%90%A5%E7%BB%9F%E8%AE%A1%E5%88%97%E8%A1%A8#2019%E5%B9%B4,https://en.wikipedia.org/wiki/Sunan_Shuofang_International_Airport,WUX,ZSWX,"7,126,411","65,650",(2021)
169,Q1934556,Xuzhou Guanyin Airport,ZSXZ,XUZ,9083790,117.55527777778,34.059055555556,33,,3005875,3005875,https://zh.wikipedia.org/wiki/%E4%B8%AD%E5%8D%8E%E4%BA%BA%E6%B0%91%E5%85%B1%E5%92%8C%E5%9B%BD%E6%9C%BA%E5%9C%BA%E8%BF%90%E8%90%A5%E7%BB%9F%E8%AE%A1%E5%88%97%E8%A1%A8#2019%E5%B9%B4,https://en.wikipedia.org/wiki/Xuzhou_Guanyin_International_Airport,XUZ,ZSXZ,"2,614,503","29,775",(2021)
170,Q5918581,Yancheng Nanyang Airport,ZSYN,YNZ,6709629,120.20305555556,33.425833333333,,,2090304,2090304,https://zh.wikipedia.org/wiki/%E4%B8%AD%E5%8D%8E%E4%BA%BA%E6%B0%91%E5%85%B1%E5%92%8C%E5%9B%BD%E6%9C%BA%E5%9C%BA%E8%BF%90%E8%90%A5%E7%BB%9F%E8%AE%A1%E5%88%97%E8%A1%A8#2019%E5%B9%B4,https://en.wikipedia.org/wiki/Yancheng_Nanyang_International_Airport,YNZ,ZSYN,"1,754,272","19,057",(2021)
171,Q4503750,Yangzhou Taizhou Airport,ZSYA,YTY,4559797,119.715,32.561666666667,3,,2979668,2979668,http://www.caac.gov.cn/XXGK/XXGK/TJSJ/202104/P020210409601938094774.xls,https://en.wikipedia.org/wiki/Yangzhou_Taizhou_International_Airport,YTY,ZSYA,"2,223,755","36,507",(2021)
172,Q1937973,Ganzhou Huangjin Airport,ZSGZ,KOW,8970014,114.77666666667,25.851666666667,,,2088731,2088731,https://zh.wikipedia.org/wiki/%E4%B8%AD%E5%8D%8E%E4%BA%BA%E6%B0%91%E5%85%B1%E5%92%8C%E5%9B%BD%E6%9C%BA%E5%9C%BA%E8%BF%90%E8%90%A5%E7%BB%9F%E8%AE%A1%E5%88%97%E8%A1%A8#2019%E5%B9%B4,https://en.wikipedia.org/wiki/Ganzhou_Huangjin_Airport,KOW,ZSGZ,"1,808,479","17,635",(2021)
173,Q1000018,Jinggangshan Airport,ZSGS,JGS,4956600,114.73722222222,26.8575,86,,870195,870195,http://www.caac.gov.cn/XXGK/XXGK/TJSJ/202104/P020210409601938094774.xls,https://en.wikipedia.org/wiki/Jinggangshan_Airport,JGS,ZSGS,"713,301","9,704",(2021)
174,Q2235470,Jingdezhen Luojia Airport,ZSJD,JDZ,1618979,117.17583333333,29.338611111111,34,,583033,621880,https://zh.wikipedia.org/wiki/%E4%B8%AD%E5%8D%8E%E4%BA%BA%E6%B0%91%E5%85%B1%E5%92%8C%E5%9B%BD%E6%9C%BA%E5%9C%BA%E8%BF%90%E8%90%A5%E7%BB%9F%E8%AE%A1%E5%88%97%E8%A1%A8#2019%E5%B9%B4,https://en.wikipedia.org/wiki/Jingdezhen_Luojia_Airport,JDZ,ZSJD,"475,148","6,039",(2021)
175,Q1375451,Nanchang Changbei International Airport,ZSCN,KHN,6255007,115.9,28.865,44,,13637151,13901623,https://zh.wikipedia.org/wiki/%E4%B8%AD%E5%8D%8E%E4%BA%BA%E6%B0%91%E5%85%B1%E5%92%8C%E5%9B%BD%E6%9C%BA%E5%9C%BA%E8%BF%90%E8%90%A5%E7%BB%9F%E8%AE%A1%E5%88%97%E8%A1%A8#2019%E5%B9%B4,https://en.wikipedia.org/wiki/Nanchang_Changbei_International_Airport,KHN,ZSCN,"9,795,967","90,904",(2021)
176,Q7488572,Shangrao Sanqingshan Airport,ZSSR,SQD,6491088,117.96138889,28.38027778,,,500156,500156,http://www.caac.gov.cn/XXGK/XXGK/TJSJ/202104/P020210409601938094774.xls,https://en.wikipedia.org/wiki/Shangrao_Sanqingshan_Airport,SQD,ZSSR,"350,201","5,141",(2021)
177,Q10853774,Yichun Mingyueshan Airport,ZSYC,YIC,5007702,114.30805555556,27.803333333333,131,,777861,777861,https://zh.wikipedia.org/wiki/%E4%B8%AD%E5%8D%8E%E4%BA%BA%E6%B0%91%E5%85%B1%E5%92%8C%E5%9B%BD%E6%9C%BA%E5%9C%BA%E8%BF%90%E8%90%A5%E7%BB%9F%E8%AE%A1%E5%88%97%E8%A1%A8#2019%E5%B9%B4,https://en.wikipedia.org/wiki/Yichun_Mingyueshan_Airport,YIC,ZSYC,"586,898","8,533",(2021)
178,Q3565600,Baicheng Chang'an Airport,ZYBA,DBC,2032356,123.01916667,45.50527778,,,65178,95691,https://zh.wikipedia.org/wiki/%E4%B8%AD%E5%8D%8E%E4%BA%BA%E6%B0%91%E5%85%B1%E5%92%8C%E5%9B%BD%E6%9C%BA%E5%9C%BA%E8%BF%90%E8%90%A5%E7%BB%9F%E8%AE%A1%E5%88%97%E8%A1%A8#2019%E5%B9%B4,https://en.wikipedia.org/wiki/Baicheng_Chang%27an_Airport,DBC[1],ZYBA[2],"95,691","1,934",(2021)
179,Q1837615,Changbaishan Airport,ZYBS,NBS,85389,127.54888889,42.08805556,,,524084,626884,http://www.caac.gov.cn/XXGK/XXGK/TJSJ/202104/P020210409601938094774.xls,https://en.wikipedia.org/wiki/Changbaishan_Airport,NBS,ZYBS,"272,168","3,265",(2021)
180,Q1197677,Changchun Longjia International Airport,ZYCC,CGQ,9066906,125.68527777778,43.996111111111,215,,13934969,13934969,https://zh.wikipedia.org/wiki/%E4%B8%AD%E5%8D%8E%E4%BA%BA%E6%B0%91%E5%85%B1%E5%92%8C%E5%9B%BD%E6%9C%BA%E5%9C%BA%E8%BF%90%E8%90%A5%E7%BB%9F%E8%AE%A1%E5%88%97%E8%A1%A8#2019%E5%B9%B4,https://en.wikipedia.org/wiki/Changchun_Longjia_International_Airport,CGQ,ZYCC,"11,289,686","89,323",(2021)
181,Q18347300,Songyuan Chaganhu Airport,ZYSQ,YSQ,2252994,124.550178,45.21077,140,,152441,159477,https://zh.wikipedia.org/wiki/%E4%B8%AD%E5%8D%8E%E4%BA%BA%E6%B0%91%E5%85%B1%E5%92%8C%E5%9B%BD%E6%9C%BA%E5%9C%BA%E8%BF%90%E8%90%A5%E7%BB%9F%E8%AE%A1%E5%88%97%E8%A1%A8#2019%E5%B9%B4,https://en.wikipedia.org/wiki/Songyuan_Chaganhu_Airport,YSQ,ZYSQ,"52,829","81,189",(2021)
182,Q6588713,Tonghua Sanyuanpu Airport,ZYTN,TNH,1302778,125.70388888889,42.253888888889,,,145734,145734,http://www.caac.gov.cn/XXGK/XXGK/TJSJ/202104/P020210409601938094774.xls,https://en.wikipedia.org/wiki/Tonghua_Sanyuanpu_Airport,TNH,ZYTN,"127,603","1,606",(2021)
183,Q1192253,Yanji Chaoyangchuan Airport,ZYYJ,YNJ,513072,129.45111111111,42.882777777778,190,,1662608,1662608,https://zh.wikipedia.org/wiki/%E4%B8%AD%E5%8D%8E%E4%BA%BA%E6%B0%91%E5%85%B1%E5%92%8C%E5%9B%BD%E6%9C%BA%E5%9C%BA%E8%BF%90%E8%90%A5%E7%BB%9F%E8%AE%A1%E5%88%97%E8%A1%A8#2019%E5%B9%B4,https://en.wikipedia.org/wiki/Yanji_Chaoyangchuan_International_Airport,YNJ,ZYYJ,"580,496","6,087",(2021)
184,Q3814343,Anshan Teng'ao Airport,ZYAS,AOG,3325372,122.85583333333,41.104722222222,,,182555,260922,http://www.caac.gov.cn/XXGK/XXGK/TJSJ/202104/P020210409601938094774.xls,https://en.wikipedia.org/wiki/Anshan_Teng%27ao_Airport,AOG,ZYAS,"176,907",2192,(2021)
185,Q63975,Chaoyang Airport,ZYCY,CHG,2872857,120.435,41.53805556,173,,157973,172962,http://www.caac.gov.cn/XXGK/XXGK/TJSJ/202104/P020210409601938094774.xls,https://en.wikipedia.org/wiki/Chaoyang_Airport,CHG,ZYCY,"69,554","81,597",(2021)
186,Q965083,Dalian Zhoushuizi International Airport,ZYTL,DLC,7450785,121.53833333333,38.965555555556,32.6136642,,20079995,20079995,https://zh.wikipedia.org/wiki/%E4%B8%AD%E5%8D%8E%E4%BA%BA%E6%B0%91%E5%85%B1%E5%92%8C%E5%9B%BD%E6%9C%BA%E5%9C%BA%E8%BF%90%E8%90%A5%E7%BB%9F%E8%AE%A1%E5%88%97%E8%A1%A8#2019%E5%B9%B4,https://en.wikipedia.org/wiki/Dalian_Zhoushuizi_International_Airport,DLC,ZYTL,"10,365,478","92,479",(2021)
187,Q1708821,Dandong Langtou Airport,ZYDD,DDG,2188436,124.28691666667,40.02575,9.1,,259048,259048,https://zh.wikipedia.org/wiki/%E4%B8%AD%E5%8D%8E%E4%BA%BA%E6%B0%91%E5%85%B1%E5%92%8C%E5%9B%BD%E6%9C%BA%E5%9C%BA%E8%BF%90%E8%90%A5%E7%BB%9F%E8%AE%A1%E5%88%97%E8%A1%A8#2019%E5%B9%B4,https://en.wikipedia.org/wiki/Dandong_Langtou_Airport,DDG,ZYDD,"243,068","2,622",(2021)
188,Q16924465,Jinzhou Bay Airport,ZYJZ,JNZ,2703853,121.28,40.93,,,385467,385467,http://www.caac.gov.cn/XXGK/XXGK/TJSJ/202104/P020210409601938094774.xls,https://en.wikipedia.org/wiki/Jinzhou_Bay_Airport,JNZ,ZYJZ,"226,513","2,525",(2021)
189,Q1144167,Shenyang Taoxian International Airport,ZYTX,SHE,9070093,123.48361111111,41.64,60,,20544044,20544044,https://zh.wikipedia.org/wiki/%E4%B8%AD%E5%8D%8E%E4%BA%BA%E6%B0%91%E5%85%B1%E5%92%8C%E5%9B%BD%E6%9C%BA%E5%9C%BA%E8%BF%90%E8%90%A5%E7%BB%9F%E8%AE%A1%E5%88%97%E8%A1%A8#2019%E5%B9%B4,https://en.wikipedia.org/wiki/Shenyang_Taoxian_International_Airport,SHE,ZYTX,"13,923,884","113,051",(2021)
190,Q18618966,Yingkou Lanqi Airport,ZYYK,YKH,2428534,122.35722222,40.54083333,,,406536,406536,https://zh.wikipedia.org/wiki/%E4%B8%AD%E5%8D%8E%E4%BA%BA%E6%B0%91%E5%85%B1%E5%92%8C%E5%9B%BD%E6%9C%BA%E5%9C%BA%E8%BF%90%E8%90%A5%E7%BB%9F%E8%AE%A1%E5%88%97%E8%A1%A8#2019%E5%B9%B4,https://en.wikipedia.org/wiki/Yingkou_Lanqi_Airport,YKH,ZYYK,"151,526","1,899",(2021)
191,Q1082907,Guyuan Liupanshan Airport,ZLGY,GYU,1142142,106.218,36.0761,1700,,379418,379418,http://www.caac.gov.cn/XXGK/XXGK/TJSJ/202104/P020210409601938094774.xls,https://en.wikipedia.org/wiki/Guyuan_Liupanshan_Airport,GYU,ZLGY,"182,860","13,606",(2021)
192,,,,,,,,,,,,,https://en.wikipedia.org/wiki/Yinchuan_Helanshan_Airport,,,,,
193,Q1019317,Zhongwei Shapotou Airport,ZLZW,ZHY,1067336,105.15444444444,37.572777777778,2500,,265650,265650,http://www.caac.gov.cn/XXGK/XXGK/TJSJ/202104/P020210409601938094774.xls,https://en.wikipedia.org/wiki/Zhongwei_Shapotou_Airport,ZHY,ZLZW,"216,414","51,358",(2021)
194,Q1655469,Delingha Airport,ZLDL,HXD,125306,97.26861111,37.125,2860,,107563,107563,https://zh.wikipedia.org/wiki/%E4%B8%AD%E5%8D%8E%E4%BA%BA%E6%B0%91%E5%85%B1%E5%92%8C%E5%9B%BD%E6%9C%BA%E5%9C%BA%E8%BF%90%E8%90%A5%E7%BB%9F%E8%AE%A1%E5%88%97%E8%A1%A8#2019%E5%B9%B4,https://en.wikipedia.org/wiki/Delingha_Airport,HXD,ZLDL,"57,092","1,320",(2021)
195,Q3272073,Golmud Airport,ZLGM,GOQ,215214,94.786111111111,36.400611111111,2842,,227098,313215,https://zh.wikipedia.org/wiki/%E4%B8%AD%E5%8D%8E%E4%BA%BA%E6%B0%91%E5%85%B1%E5%92%8C%E5%9B%BD%E6%9C%BA%E5%9C%BA%E8%BF%90%E8%90%A5%E7%BB%9F%E8%AE%A1%E5%88%97%E8%A1%A8#2019%E5%B9%B4,https://en.wikipedia.org/wiki/Golmud_Airport,GOQ,ZLGM,"313,215","3,960",(2021)
196,Q5580901,Golog Airport,ZLGL,GMQ,155300,100.3016,34.4213,3787.6,3800,135125,135125,http://www.caac.gov.cn/XXGK/XXGK/TJSJ/202104/P020210409601938094774.xls,https://en.wikipedia.org/wiki/Golog_Maqin_Airport,GMQ,ZLGL,"132,161","1,802",(2021)
197,Q3207552,Huatugou Airport,ZLHX,HTT,31017,90.84166667,38.20333333,2945,,78753,78753,http://www.caac.gov.cn/XXGK/XXGK/TJSJ/202104/P020210409601938094774.xls,https://en.wikipedia.org/wiki/Huatugou_Airport,HTT,ZLHX,"64,747",800,(2021)
198,Q18169219,Qilian Airport,ZLHB,HBQ,46473,100.644,38.012,3150,,31566,31566,http://www.caac.gov.cn/XXGK/XXGK/TJSJ/202104/P020210409601938094774.xls,https://en.wikipedia.org/wiki/Haibei_Qilian_Airport,HBQ,ZLHB,"3,612",172,(2021)
199,Q2235480,Xining Caojiabao Airport,ZLXN,XNN,2467965,102.04277777778,36.5275,2170,,7226518,7226518,http://www.caac.gov.cn/XXGK/XXGK/TJSJ/202104/P020210409601938094774.xls,https://en.wikipedia.org/wiki/Xining_Caojiabao_International_Airport,XNN,ZLXN,"5,864,258","57,020",(2021)
200,Q1055073,Yushu Batang Airport,ZLYS,YUS,1304436,97.0382,32.8387,3890,3800,318714,374561,http://www.caac.gov.cn/XXGK/XXGK/TJSJ/202104/P020210409601938094774.xls,https://en.wikipedia.org/wiki/Yushu_Batang_Airport,YUS,ZLYS,"374,561","4,584",(2021)
201,Q1019286,Ankang Wulipu Airport,ZLAK,AKA,2629906,108.93111111111,32.708055555556,262,,,11143,https://zh.wikipedia.org/wiki/中华人民共和国机场运营统计列表,https://en.wikipedia.org/wiki/Ankang_Wulipu_Airport,AKA,ZLAK,"257,017","62,070",(2021)
202,Q3178230,Hanzhong Chenggu Airport,ZLHZ,HZG,3211462,107.20222222,33.13666667,,,651284,651284,https://zh.wikipedia.org/wiki/%E4%B8%AD%E5%8D%8E%E4%BA%BA%E6%B0%91%E5%85%B1%E5%92%8C%E5%9B%BD%E6%9C%BA%E5%9C%BA%E8%BF%90%E8%90%A5%E7%BB%9F%E8%AE%A1%E5%88%97%E8%A1%A8#2019%E5%B9%B4,https://en.wikipedia.org/wiki/Hanzhong_Chenggu_Airport,HZG,ZLHZ,"409,731","13,528",(2021)
203,Q141677,Xi'an Xianyang International Airport,ZLXY,XIY,12952907,108.75138888889,34.446944444444,479,3800,47220745,47220745,https://www.fraport.com/content/dam/fraport-company/documents/investoren/eng/finanz--und-verkehrszahlen/verkehrszahlen/group/2019/fraport-group-traffic-figures-12_2019.xlsx/_jcr_content/renditions/original.media_file.download_attachment.file/fraport-group-traffic-figures-12_2019.xlsx,https://en.wikipedia.org/wiki/Xi%27an_Xianyang_International_Airport,XIY,ZLXY,"30,173,312","256,965",(2021)
204,Q58413255,Yan'an Nanniwan Airport,ZLYA,ENY,2282581,109.46527777778,36.476388888889,,3000,686240,686240,http://www.caac.gov.cn/XXGK/XXGK/TJSJ/202104/P020210409601938094774.xls,https://en.wikipedia.org/wiki/Yan%27an_Nanniwan_Airport,ENY,ZLYA,"551,266","7,544",(2021)
205,Q8060965,Yulin Yuyang Airport,ZLYL,UYN,3634750,109.73,38.2742,,,2531468,2531468,https://zh.wikipedia.org/wiki/%E4%B8%AD%E5%8D%8E%E4%BA%BA%E6%B0%91%E5%85%B1%E5%92%8C%E5%9B%BD%E6%9C%BA%E5%9C%BA%E8%BF%90%E8%90%A5%E7%BB%9F%E8%AE%A1%E5%88%97%E8%A1%A8#2019%E5%B9%B4,https://en.wikipedia.org/wiki/Yulin_Yuyang_Airport,UYN,ZLYL,"1,718,283","19,367",(2021)
206,Q63550,Dongying Shengli Airport,ZSDY,DOY,2193518,118.78444444444,37.510277777778,,,880145,880145,https://zh.wikipedia.org/wiki/%E4%B8%AD%E5%8D%8E%E4%BA%BA%E6%B0%91%E5%85%B1%E5%92%8C%E5%9B%BD%E6%9C%BA%E5%9C%BA%E8%BF%90%E8%90%A5%E7%BB%9F%E8%AE%A1%E5%88%97%E8%A1%A8#2019%E5%B9%B4,https://en.wikipedia.org/wiki/Dongying_Shengli_Airport,DOY,ZSDY,"682,191","31,569",(2021)
207,Q1378003,Jinan Yaoqiang International Airport,ZSJN,TNA,9202432,117.21611111111,36.857222222222,23,,17560507,17560507,http://www.caac.gov.cn/XXGK/XXGK/TJSJ/202104/P020210409601938094774.xls,https://en.wikipedia.org/wiki/Jinan_Yaoqiang_International_Airport,TNA,ZSJN,"13,616,212","108,770",(2021)
208,Q1085370,Jining Qufu Airport,ZSJG,JNG,8357897,116.34666667,35.29277778,,,1487810,1487810,http://www.caac.gov.cn/XXGK/XXGK/TJSJ/202104/P020210409601938094774.xls,https://en.wikipedia.org/wiki/Jining_Qufu_Airport,JNG,ZSJG,"1,006,299","10,868",(2021)
209,Q3272822,Linyi Qiyang Airport,ZSLY,LYI,11018365,118.41166666667,35.046111111111,,,2580823,2580823,http://www.caac.gov.cn/XXGK/XXGK/TJSJ/202104/P020210409601938094774.xls,https://en.wikipedia.org/wiki/Linyi_Qiyang_Airport,LYI,ZSLY,"2,364,486","47,068",(2021)
210,Q1156790,Qingdao Liuting International Airport,ZSQD,TAO,10071722,120.37444444444,36.266111111111,10,,25556278,25556278,https://zh.wikipedia.org/wiki/%E4%B8%AD%E5%8D%8E%E4%BA%BA%E6%B0%91%E5%85%B1%E5%92%8C%E5%9B%BD%E6%9C%BA%E5%9C%BA%E8%BF%90%E8%90%A5%E7%BB%9F%E8%AE%A1%E5%88%97%E8%A1%A8#2019%E5%B9%B4,https://en.wikipedia.org/wiki/Qingdao_Liuting_International_Airport,TAO,ZSQD,"16,031,973",,(2021)
211,Q15090268,Rizhao Shanzihe Airport,ZSRZ,RIZ,2968365,119.31666667,35.39972222,,,1017891,1017891,http://www.caac.gov.cn/XXGK/XXGK/TJSJ/202104/P020210409601938094774.xls,https://en.wikipedia.org/wiki/Rizhao_Shanzihe_Airport,RIZ,ZSRZ,"642,650","100,106",(2021)
212,Q1018774,Weifang Airport,ZSWF,WEF,9386705,119.118,36.6467,47.4,,468598,724754,https://zh.wikipedia.org/wiki/%E4%B8%AD%E5%8D%8E%E4%BA%BA%E6%B0%91%E5%85%B1%E5%92%8C%E5%9B%BD%E6%9C%BA%E5%9C%BA%E8%BF%90%E8%90%A5%E7%BB%9F%E8%AE%A1%E5%88%97%E8%A1%A8#2019%E5%B9%B4,https://en.wikipedia.org/wiki/Weifang_Nanyuan_Airport,WEF,ZSWF,"680,077","b8,710",(2021)
213,Q1192247,Weihai Dashuibo Airport,ZSWH,WEH,2906548,122.22888888889,37.186944444444,44.196087,,3090766,3090766,https://zh.wikipedia.org/wiki/%E4%B8%AD%E5%8D%8E%E4%BA%BA%E6%B0%91%E5%85%B1%E5%92%8C%E5%9B%BD%E6%9C%BA%E5%9C%BA%E8%BF%90%E8%90%A5%E7%BB%9F%E8%AE%A1%E5%88%97%E8%A1%A8#2019%E5%B9%B4,https://en.wikipedia.org/wiki/Weihai_Dashuibo_Airport,WEH,ZSWH,"2,005,161","22,893",(2021)
214,,,,,,,,,,,,,https://en.wikipedia.org/wiki/Yantai_Laishan_Airport,YNT,ZSYT,,,
215,Q421811,Shanghai Hongqiao International Airport,ZSSS,SHA,24870895,121.336389,31.198056,3.048006,3200,45637882,45637882,http://www.caac.gov.cn/XXGK/XXGK/TJSJ/202104/P020210409601938094774.xls,https://en.wikipedia.org/wiki/Shanghai_Hongqiao_International_Airport,SHA,ZSSS,"33,207,337","231,261",(2021)
216,Q36420,Shanghai Pudong International Airport,ZSPD,PVG,24870895,121.805278,31.143333,4,4000,76153455,76153455,https://zh.wikipedia.org/wiki/%E4%B8%AD%E5%8D%8E%E4%BA%BA%E6%B0%91%E5%85%B1%E5%92%8C%E5%9B%BD%E6%9C%BA%E5%9C%BA%E8%BF%90%E8%90%A5%E7%BB%9F%E8%AE%A1%E5%88%97%E8%A1%A8#2019%E5%B9%B4,https://en.wikipedia.org/wiki/Shanghai_Pudong_International_Airport,PVG,ZSPD,"32,206,814","349,524",(2021)
217,Q3756164,Changzhi Wangcun Airport,ZBCZ,CIH,3180884,113.126,36.2475,,,862824,862824,http://www.caac.gov.cn/XXGK/XXGK/TJSJ/202104/P020210409601938094774.xls,https://en.wikipedia.org/wiki/Changzhi_Wangcun_Airport,CIH,ZBCZ,"350,012","4,698",(2021)
218,Q1018789,Datong Yungang Airport,ZBDT,DAT,3318054,113.48194444444,40.060277777778,1054,,1307139,1307139,http://www.caac.gov.cn/XXGK/XXGK/TJSJ/202104/P020210409601938094774.xls,https://en.wikipedia.org/wiki/Datong_Yungang_Airport,DAT,ZBDT,"885,224","21,468",(2021)
219,Q6553665,Linfen Qiaoli Airport,ZBLF,LFQ,3976481,111.497,36.0431,,,768232,783950,https://zh.wikipedia.org/wiki/%E4%B8%AD%E5%8D%8E%E4%BA%BA%E6%B0%91%E5%85%B1%E5%92%8C%E5%9B%BD%E6%9C%BA%E5%9C%BA%E8%BF%90%E8%90%A5%E7%BB%9F%E8%AE%A1%E5%88%97%E8%A1%A8#2019%E5%B9%B4,https://en.wikipedia.org/wiki/Linfen_Yaodu_Airport,LFQ,ZBLF,"783,950","9,084",(2021)
220,Q6711554,Lüliang Airport,ZBLL,LLV,3398431,111.14277778,37.68333333,,,458481,458481,http://www.caac.gov.cn/XXGK/XXGK/TJSJ/202104/P020210409601938094774.xls,https://en.wikipedia.org/wiki/L%C3%BCliang_Dawu_Airport,LLV,ZBLL,"379,659","6,381",(2021)
221,Q2361055,Taiyuan Wusu International Airport,ZBYN,TYN,5304061,112.62833333333,37.91881,785,,14002582,14002582,http://www.caac.gov.cn/XXGK/XXGK/TJSJ/202104/P020210409601938094774.xls,https://en.wikipedia.org/wiki/Taiyuan_Wusu_International_Airport,TYN,ZBYN,"9,995,334","88,951",(2021)
222,Q8039374,Xinzhou Wutaishan Airport,ZBXZ,WUT,3067501,112.96777777778,38.599166666667,,,487202,487202,http://www.caac.gov.cn/XXGK/XXGK/TJSJ/202104/P020210409601938094774.xls,https://en.wikipedia.org/wiki/Xinzhou_Wutaishan_Airport,WUT,ZBXZ,"297,051","4,418",(2021)
223,Q1017617,Yuncheng Zhangxiao Airport,ZBYC,YCU,4774508,111.03961666667,35.116666666667,,,2484569,2484569,http://www.caac.gov.cn/XXGK/XXGK/TJSJ/202104/P020210409601938094774.xls,https://en.wikipedia.org/wiki/Yuncheng_Zhangxiao_Airport,YCU,ZBYC,"1,919,323","24,229",(2021)
224,Q17498850,Bazhong Enyang Airport,ZUBZ,BZX,3283148,106.633,30.7,550,,196861,382398,http://www.caac.gov.cn/XXGK/XXGK/TJSJ/202104/P020210409601938094774.xls,https://en.wikipedia.org/wiki/Bazhong_Enyang_Airport,BZX,ZUBZ,"382,398","10,482",(2021)
225,Q387560,Chengdu Shuangliu International Airport,ZUUU,CTU,20937757,103.948333,30.58,495.300975,3600,55858552,55858552,http://www.caac.gov.cn/XXGK/XXGK/TJSJ/202104/P020210409601938094774.xls,https://en.wikipedia.org/wiki/Chengdu_Shuangliu_International_Airport,CTU,ZUUU,"40,117,496","300,862",(2021)
226,Q1708704,Daocheng Yading Airport,ZUDC,DCY,31113,100.05333333333,29.323055555556,4411,,226273,242091,http://www.caac.gov.cn/XXGK/XXGK/TJSJ/202104/P020210409601938094774.xls,https://en.wikipedia.org/wiki/Daocheng_Yading_Airport,DCY,ZUDC,"155,474","2,314",(2021)
227,Q3756194,Dazhou Heshi Airport,ZUDX,DAX,5385422,107.5,31.3,,,571290,571290,http://www.caac.gov.cn/XXGK/XXGK/TJSJ/202104/P020210409601938094774.xls,https://en.wikipedia.org/wiki/Dazhou_Heshi_Airport,DAX,ZUDX,"558,207","8,305",(2021)
228,Q25080721,Garzê Gesar Airport,ZUGZ,GZG,68523,99.553611,31.755,4068,,9601,80788,https://zh.wikipedia.org/wiki/%E4%B8%AD%E5%8D%8E%E4%BA%BA%E6%B0%91%E5%85%B1%E5%92%8C%E5%9B%BD%E6%9C%BA%E5%9C%BA%E8%BF%90%E8%90%A5%E7%BB%9F%E8%AE%A1%E5%88%97%E8%A1%A8#2019%E5%B9%B4,https://en.wikipedia.org/wiki/Garze_Gesar_Airport,GZG,ZUGZ,"80,788","1,718",(2021)
229,Q3756159,Guangyuan Panlong Airport,ZUGU,GYS,2484122,105.69333333,32.39,620,,491287,491287,http://www.caac.gov.cn/XXGK/XXGK/TJSJ/202104/P020210409601938094774.xls,https://en.wikipedia.org/wiki/Guangyuan_Panlong_Airport,GYS,ZUGU,"459,399","4,617",(2021)
230,Q3206610,Hongyuan Airport,ZUHY,AHJ,43818,102.357,32.5292,3535,,39502,47192,http://www.caac.gov.cn/XXGK/XXGK/TJSJ/202104/P020210409601938094774.xls,https://en.wikipedia.org/wiki/Hongyuan_Airport,AHJ,ZUHY,"22,748",566,(2021)
231,Q1431641,Kangding Airport,ZUKD,KGT,1107431,101.73472222222,30.1575,4280,,55020,133669,https://zh.wikipedia.org/wiki/%E4%B8%AD%E5%8D%8E%E4%BA%BA%E6%B0%91%E5%85%B1%E5%92%8C%E5%9B%BD%E6%9C%BA%E5%9C%BA%E8%BF%90%E8%90%A5%E7%BB%9F%E8%AE%A1%E5%88%97%E8%A1%A8#2019%E5%B9%B4,https://en.wikipedia.org/wiki/Kangding_Airport,KGT,ZUKD,"25,417",944,(2021)
232,Q15635342,Luzhou Yunlong Airport,ZULZ,LZO,9369881,105.47,29.03,,,1861445,2100833,https://zh.wikipedia.org/wiki/%E4%B8%AD%E5%8D%8E%E4%BA%BA%E6%B0%91%E5%85%B1%E5%92%8C%E5%9B%BD%E6%9C%BA%E5%9C%BA%E8%BF%90%E8%90%A5%E7%BB%9F%E8%AE%A1%E5%88%97%E8%A1%A8#2019%E5%B9%B4,https://en.wikipedia.org/wiki/Luzhou_Yunlong_Airport,LZO,ZULZ,"2,100,833","24,555",(2021)
233,Q3756119,Mianyang Nanjiao Airport,ZUMY,MIG,4868243,104.73972222222,31.43,,,4159370,4159370,http://www.caac.gov.cn/XXGK/XXGK/TJSJ/202104/P020210409601938094774.xls,https://en.wikipedia.org/wiki/Mianyang_Nanjiao_Airport,MIG,ZUMY,"2,980,409","188,894",(2021)
234,Q3756136,Nanchong Gaoping Airport,ZUNC,NAO,5607565,106.15972222222,30.793888888889,,,1011625,1011625,http://www.caac.gov.cn/XXGK/XXGK/TJSJ/202104/P020210409601938094774.xls,https://en.wikipedia.org/wiki/Nanchong_Gaoping_Airport,NAO,ZUNC,"923,789","17,394",(2021)
235,Q1014250,Panzhihua Bao'anying Airport,ZUZH,PZI,1214121,101.79851944444,26.542313888889,1980,,547023,547023,http://www.caac.gov.cn/XXGK/XXGK/TJSJ/202104/P020210409601938094774.xls,https://en.wikipedia.org/wiki/Panzhihua_Bao%27anying_Airport,PZI,ZUZH,"336,726","4,534",(2021)
236,Q2875838,Jiuzhai Huanglong Airport,ZUJZ,JZH,,103.68527777778,32.854166666667,3447.9043872,,20459,1752937,http://www.caac.gov.cn/XXGK/XXGK/TJSJ/202104/P020210409601938094774.xls,https://en.wikipedia.org/wiki/Jiuzhai_Huanglong_Airport,JZH,ZUJZ,"150,029","2,222",(2021)
237,Q3750906,Xichang Qingshan Airport,ZUXC,XIC,712434,102.18444444444,27.989166666667,1558,,1087186,1595315,http://www.caac.gov.cn/XXGK/XXGK/TJSJ/202104/P020210409601938094774.xls,https://en.wikipedia.org/wiki/Xichang_Qingshan_Airport,XIC,ZUXC,"1,595,315","17,454",(2021)
238,Q8053504,Yibin Wuliangye Airport,ZUYB,YBP,4588804,104.525,28.858,420,,1000744,1543792,https://zh.wikipedia.org/wiki/%E4%B8%AD%E5%8D%8E%E4%BA%BA%E6%B0%91%E5%85%B1%E5%92%8C%E5%9B%BD%E6%9C%BA%E5%9C%BA%E8%BF%90%E8%90%A5%E7%BB%9F%E8%AE%A1%E5%88%97%E8%A1%A8#2019%E5%B9%B4,https://en.wikipedia.org/wiki/Yibin_Wuliangye_Airport,YBP,ZUYB,,,
239,Q774669,Tianjin Binhai International Airport,ZBTJ,TSN,13866009,117.34611111111,39.124444444444,3.048006,,23813318,23813318,https://zh.wikipedia.org/wiki/%E4%B8%AD%E5%8D%8E%E4%BA%BA%E6%B0%91%E5%85%B1%E5%92%8C%E5%9B%BD%E6%9C%BA%E5%9C%BA%E8%BF%90%E8%90%A5%E7%BB%9F%E8%AE%A1%E5%88%97%E8%A1%A8#2019%E5%B9%B4,https://en.wikipedia.org/wiki/Tianjin_Binhai_International_Airport,TSN,ZBTJ,"15,127,110","125,328",(2021)
240,Q786209,Lhasa Gonggar Airport,ZULS,LXA,867891,90.911944444444,29.297777777778,3569.215026,,4572428,4779386,https://zh.wikipedia.org/wiki/%E4%B8%AD%E5%8D%8E%E4%BA%BA%E6%B0%91%E5%85%B1%E5%92%8C%E5%9B%BD%E6%9C%BA%E5%9C%BA%E8%BF%90%E8%90%A5%E7%BB%9F%E8%AE%A1%E5%88%97%E8%A1%A8#2019%E5%B9%B4,https://en.wikipedia.org/wiki/Lhasa_Gonggar_Airport,LXA,ZULS,"4,779,386","44,449",(2021)
241,Q1432172,Ngari Günsa Airport,ZUAL,NGQ,83461,80.044327777778,32.114202777778,4274,,90898,190056,https://zh.wikipedia.org/wiki/%E4%B8%AD%E5%8D%8E%E4%BA%BA%E6%B0%91%E5%85%B1%E5%92%8C%E5%9B%BD%E6%9C%BA%E5%9C%BA%E8%BF%90%E8%90%A5%E7%BB%9F%E8%AE%A1%E5%88%97%E8%A1%A8#2019%E5%B9%B4,https://en.wikipedia.org/wiki/Ngari_Gunsa_Airport,NGQ,ZUAL,"190,056","2,535",(2021)
242,Q615458,Nyingchi Mainling Airport,ZUNZ,LZY,164331,94.335277777778,29.303333333333,2949,,557878,557878,https://zh.wikipedia.org/wiki/%E4%B8%AD%E5%8D%8E%E4%BA%BA%E6%B0%91%E5%85%B1%E5%92%8C%E5%9B%BD%E6%9C%BA%E5%9C%BA%E8%BF%90%E8%90%A5%E7%BB%9F%E8%AE%A1%E5%88%97%E8%A1%A8#2019%E5%B9%B4,https://en.wikipedia.org/wiki/Nyingchi_Mainling_Airport,LZY,ZUNZ,"515,780","6,666",(2021)
243,Q531800,Qamdo Bamda Airport,ZUBD,BPX,760966,97.108611111111,30.553611111111,4400,5500,373319,401265,http://www.caac.gov.cn/XXGK/XXGK/TJSJ/202104/P020210409601938094774.xls,https://en.wikipedia.org/wiki/Qamdo_Bamda_Airport,BPX,ZUBD,"402,165","4,754",(2021)
244,Q1083293,Shigatse Peace Airport,ZURK,RKZ,798153,89.306944444444,29.351666666667,3782,,155432,155432,http://www.caac.gov.cn/XXGK/XXGK/TJSJ/202104/P020210409601938094774.xls,https://en.wikipedia.org/wiki/Shigatse_Peace_Airport,RKZ,ZURK,"144,870","1,804",(2021)
245,Q1006478,Aksu Airport,ZWAK,AKU,535657,80.291666666667,41.2625,1163,,1711210,1711210,https://zh.wikipedia.org/wiki/%E4%B8%AD%E5%8D%8E%E4%BA%BA%E6%B0%91%E5%85%B1%E5%92%8C%E5%9B%BD%E6%9C%BA%E5%9C%BA%E8%BF%90%E8%90%A5%E7%BB%9F%E8%AE%A1%E5%88%97%E8%A1%A8#2019%E5%B9%B4,https://en.wikipedia.org/wiki/Aksu_Hongqipo_Airport,AKU,ZWAK,"1,623,187","16,967",(2021)
246,Q1266681,Altay Airport,ZWAT,AAT,190064,88.084444444444,47.750361111111,759.2582946,,498279,498279,http://www.caac.gov.cn/XXGK/XXGK/TJSJ/202104/P020210409601938094774.xls,https://en.wikipedia.org/wiki/Altay_Xuedu_Airport,AAT,ZWAT,"403,690","5,908",(2021)
247,Q3886440,Bole Alashankou Airport,ZWBL,BPL,235585,82.29972222,44.895,382,,303664,303664,http://www.caac.gov.cn/XXGK/XXGK/TJSJ/202104/P020210409601938094774.xls,https://en.wikipedia.org/wiki/Bole_Alashankou_Airport,BPL,ZWBL,"251,570","36,104",(2021)
248,Q3281135,Kanas Airport,ZWKN,KJI,66758,86.99805556,48.22111111,1188,,164511,164511,https://zh.wikipedia.org/wiki/%E4%B8%AD%E5%8D%8E%E4%BA%BA%E6%B0%91%E5%85%B1%E5%92%8C%E5%9B%BD%E6%9C%BA%E5%9C%BA%E8%BF%90%E8%90%A5%E7%BB%9F%E8%AE%A1%E5%88%97%E8%A1%A8#2019%E5%B9%B4,https://en.wikipedia.org/wiki/Burqin_Kanas_Airport,KJI,ZWKN,"55,252","1,921",(2021)
249,Q3274137,Fuyun Koktokay Airport,ZWFY,FYN,,89.5026,46.8039,,,65107,65107,https://zh.wikipedia.org/wiki/%E4%B8%AD%E5%8D%8E%E4%BA%BA%E6%B0%91%E5%85%B1%E5%92%8C%E5%9B%BD%E6%9C%BA%E5%9C%BA%E8%BF%90%E8%90%A5%E7%BB%9F%E8%AE%A1%E5%88%97%E8%A1%A8#2019%E5%B9%B4,https://en.wikipedia.org/wiki/Fuyun_Koktokay_Airport,FYN,ZWFY,"40,928","27,598",(2021)
250,Q3886447,Hami Airport,ZWHM,HMI,673383,93.669444444444,42.8425,824,,283483,398645,http://www.caac.gov.cn/XXGK/XXGK/TJSJ/202104/P020210409601938094774.xls,https://en.wikipedia.org/wiki/Hami_Airport,HMI,ZWHM,"173,179","2,690",(2021)
251,Q2983967,Hotan Airport,ZWTN,HTN,322300,79.865,37.038611111111,1424,,1596218,1596218,https://zh.wikipedia.org/wiki/%E4%B8%AD%E5%8D%8E%E4%BA%BA%E6%B0%91%E5%85%B1%E5%92%8C%E5%9B%BD%E6%9C%BA%E5%9C%BA%E8%BF%90%E8%90%A5%E7%BB%9F%E8%AE%A1%E5%88%97%E8%A1%A8#2019%E5%B9%B4,https://en.wikipedia.org/wiki/Hotan_Airport,HTN,ZWTN,"1,290,889","13,527",(2021)
252,Q2630505,Karamay Airport,ZWKM,KRY,391008,84.9525,45.466388888889,334,,868285,868285,http://www.caac.gov.cn/XXGK/XXGK/TJSJ/202104/P020210409601938094774.xls,https://en.wikipedia.org/wiki/Karamay_Airport,KRY,ZWKM,"402,950","16,841",(2021)
253,Q2579951,Kashgar Airport,ZWSH,KHG,506640,76.02,39.543055555556,1380,,2433209,2433209,http://www.caac.gov.cn/XXGK/XXGK/TJSJ/202104/P020210409601938094774.xls,https://en.wikipedia.org/wiki/Kashgar_Airport,KHG,ZWSH,"2,171,947","19,104",(2021)
254,Q5259967,Korla Airport,ZWKL,KRL,549324,86.143055555556,41.616388888889,927,,2202333,2202333,https://zh.wikipedia.org/wiki/%E4%B8%AD%E5%8D%8E%E4%BA%BA%E6%B0%91%E5%85%B1%E5%92%8C%E5%9B%BD%E6%9C%BA%E5%9C%BA%E8%BF%90%E8%90%A5%E7%BB%9F%E8%AE%A1%E5%88%97%E8%A1%A8#2019%E5%B9%B4,https://en.wikipedia.org/wiki/Korla_Licheng_Airport,KRL,ZWKL,"1,839,281","20,227",(2021)
255,Q2983995,Kuqa Qiuci Airport,ZWKC,KCA,462588,82.986944444444,41.718055555556,1074,,424579,437652,https://zh.wikipedia.org/wiki/%E4%B8%AD%E5%8D%8E%E4%BA%BA%E6%B0%91%E5%85%B1%E5%92%8C%E5%9B%BD%E6%9C%BA%E5%9C%BA%E8%BF%90%E8%90%A5%E7%BB%9F%E8%AE%A1%E5%88%97%E8%A1%A8#2019%E5%B9%B4,https://en.wikipedia.org/wiki/Kuqa_Qiuci_Airport,KCA,ZWKC,"437,652","6,098",(2021)
256,Q28127825,Qiemo Yudu Airport,ZWCM,IQM,18893,85.46555556,38.23361111,,,135663,135663,http://www.caac.gov.cn/XXGK/XXGK/TJSJ/202104/P020210409601938094774.xls,https://en.wikipedia.org/wiki/Qiemo_Yudu_Airport,IQM,ZWCM,"129,194","2,148",(2021)
257,Q16258278,Ruoqiang Loulan Airport,ZWRQ,RQA,35580,88.012,38.973,890,,131110,145943,https://zh.wikipedia.org/wiki/%E4%B8%AD%E5%8D%8E%E4%BA%BA%E6%B0%91%E5%85%B1%E5%92%8C%E5%9B%BD%E6%9C%BA%E5%9C%BA%E8%BF%90%E8%90%A5%E7%BB%9F%E8%AE%A1%E5%88%97%E8%A1%A8#2019%E5%B9%B4,https://en.wikipedia.org/wiki/Ruoqiang_Loulan_Airport,RQA,ZWRQ,"145,943","2,480",(2021)
258,Q7496471,Shihezi Huayuan Airport,ZWHZ,SHF,,85.891111111111,44.241666666667,,,48659,187249,http://www.caac.gov.cn/XXGK/XXGK/TJSJ/202104/P020210409601938094774.xls,https://en.wikipedia.org/wiki/Shihezi_Huayuan_Airport,SHF,ZWHZ,"187,249","33,078",(2021)
259,Q2983621,Tacheng Airport,ZWTC,TCG,161037,83.340833333333,46.6725,604,,338732,338732,http://www.caac.gov.cn/XXGK/XXGK/TJSJ/202104/P020210409601938094774.xls,https://en.wikipedia.org/wiki/Tacheng_Airport,TCG,ZWTC,"160,886","4,869",(2021)
260,Q15713051,Tumxuk Tangwangcheng Airport,ZWTS,TWC,270100,78.99,39.880555555556,,,163679,181382,https://zh.wikipedia.org/wiki/%E4%B8%AD%E5%8D%8E%E4%BA%BA%E6%B0%91%E5%85%B1%E5%92%8C%E5%9B%BD%E6%9C%BA%E5%9C%BA%E8%BF%90%E8%90%A5%E7%BB%9F%E8%AE%A1%E5%88%97%E8%A1%A8#2019%E5%B9%B4,https://en.wikipedia.org/wiki/Tumxuk_Tangwangcheng_Airport,TWC,ZWTS,"181,382","3,652",(2021)
261,Q6588610,Turpan Jiaohe Airport,ZWTP,TLQ,622903,89.0972,43.0303,,,341953,341953,http://www.caac.gov.cn/XXGK/XXGK/TJSJ/202104/P020210409601938094774.xls,https://en.wikipedia.org/wiki/Turpan_Jiaohe_Airport,TLQ,ZWTL,"39,635","1,219",(2021)
262,Q765650,Ürümqi Diwopu International Airport,ZWWW,URC,4054369,87.474166666667,43.907222222222,648,3600,23963167,23963167,http://www.caac.gov.cn/XXGK/XXGK/TJSJ/202104/P020210409601938094774.xls,https://en.wikipedia.org/wiki/%C3%9Cr%C3%BCmqi_Diwopu_International_Airport,URC,ZWWW,"16,880,507","138,724",(2021)
263,Q3280908,Xinyuan Nalati Airport,ZWNL,NLT,282718,83.38027778,43.43305556,,,113092,113092,http://www.caac.gov.cn/XXGK/XXGK/TJSJ/202104/P020210409601938094774.xls,https://en.wikipedia.org/wiki/Xinyuan_Nalati_Airport,NLT,ZWNL,"39,031",533,(2021)
264,Q15642624,Shache Airport,ZWSC,QSZ,762385,77.0403,38.2258,1290,,320302,320302,http://www.caac.gov.cn/XXGK/XXGK/TJSJ/202104/P020210409601938094774.xls,https://en.wikipedia.org/wiki/Shache_Airport,QSZ,ZWSC,"277,259","4,420",(2021)
265,Q2630866,Yining Airport,ZWYN,YIN,526745,81.330277777778,43.955833333333,666,,1477371,1477371,https://zh.wikipedia.org/wiki/%E4%B8%AD%E5%8D%8E%E4%BA%BA%E6%B0%91%E5%85%B1%E5%92%8C%E5%9B%BD%E6%9C%BA%E5%9C%BA%E8%BF%90%E8%90%A5%E7%BB%9F%E8%AE%A1%E5%88%97%E8%A1%A8#2019%E5%B9%B4,https://en.wikipedia.org/wiki/Yining_Airport,YIN,ZWYN,"821,782","9,003",(2021)
266,Q986556,Baoshan Yunduan Airport,ZPBS,BSD,2627000,99.168333333333,25.053333333333,1662,,1228964,1228964,https://zh.wikipedia.org/wiki/%E4%B8%AD%E5%8D%8E%E4%BA%BA%E6%B0%91%E5%85%B1%E5%92%8C%E5%9B%BD%E6%9C%BA%E5%9C%BA%E8%BF%90%E8%90%A5%E7%BB%9F%E8%AE%A1%E5%88%97%E8%A1%A8#2019%E5%B9%B4,https://en.wikipedia.org/wiki/Baoshan_Yunrui_Airport,BSD,ZPBS,"1,016,445","11,663",(2021)
267,Q15838852,Cangyuan Washan Airport,ZPCW,CWJ,179098,99.37361111,23.27652,,,337203,337203,https://zh.wikipedia.org/wiki/%E4%B8%AD%E5%8D%8E%E4%BA%BA%E6%B0%91%E5%85%B1%E5%92%8C%E5%9B%BD%E6%9C%BA%E5%9C%BA%E8%BF%90%E8%90%A5%E7%BB%9F%E8%AE%A1%E5%88%97%E8%A1%A8#2019%E5%B9%B4,https://en.wikipedia.org/wiki/Cangyuan_Washan_Airport,CWJ,ZPCW,"224,294","2,636",(2021)
268,Q1119549,Dali Fengyi Airport,ZPDL,DLU,771128,100.31833333333,25.651111111111,2149,,1773857,1776364,https://zh.wikipedia.org/wiki/%E4%B8%AD%E5%8D%8E%E4%BA%BA%E6%B0%91%E5%85%B1%E5%92%8C%E5%9B%BD%E6%9C%BA%E5%9C%BA%E8%BF%90%E8%90%A5%E7%BB%9F%E8%AE%A1%E5%88%97%E8%A1%A8#2019%E5%B9%B4,https://en.wikipedia.org/wiki/Dali_Fengyi_Airport,DLU,ZPDL,"1,420,494","15,999",(2021)
269,Q1579838,Dêqên Shangri-La Airport,ZPDQ,DIG,388000,99.677333333333,27.793333333333,3280,,617941,617941,http://www.caac.gov.cn/XXGK/XXGK/TJSJ/202104/P020210409601938094774.xls,https://en.wikipedia.org/wiki/Diqing_Shangri-La_Airport,DIG,ZPDQ,"369,848","5,312",(2021)
270,Q3234757,Xishuangbanna Gasa International Airport,ZPJH,JHG,1301000,100.75961111111,21.973913888889,553,,5524284,5524284,http://www.caac.gov.cn/XXGK/XXGK/TJSJ/202104/P020210409601938094774.xls,https://en.wikipedia.org/wiki/Xishuangbanna_Gasa_International_Airport,JHG,ZPJH,"4,267,978","36,675",(2021)
271,,,,,,,,,,,,,https://en.wikipedia.org/wiki/Kunming_Wujiaba_International_Airport,KMG,ZPPP,"22,270,130",,(2011)
272,Q15917232,Lancang Airport,ZPJM,JMJ,491884,99.78638889,22.41583333,,,453411,454713,http://www.caac.gov.cn/XXGK/XXGK/TJSJ/202104/P020210409601938094774.xls,https://en.wikipedia.org/wiki/Lancang_Jingmai_Airport,JMJ,ZPJM,"419,435","5,090",(2021)
273,Q1431877,Lijiang Sanyi Airport,ZPLJ,LJG,1254000,100.24583333333,26.679166666667,2243.0276154,,7173986,7529935,https://zh.wikipedia.org/wiki/%E4%B8%AD%E5%8D%8E%E4%BA%BA%E6%B0%91%E5%85%B1%E5%92%8C%E5%9B%BD%E6%9C%BA%E5%9C%BA%E8%BF%90%E8%90%A5%E7%BB%9F%E8%AE%A1%E5%88%97%E8%A1%A8#2019%E5%B9%B4,https://en.wikipedia.org/wiki/Lijiang_Sanyi_International_Airport,LJG,ZPLJ,"4,220,618","39,192",(2021)
274,Q991730,Lincang Airport,ZPLC,LNJ,2536000,100.025,23.738333333333,,,470174,470174,https://zh.wikipedia.org/wiki/%E4%B8%AD%E5%8D%8E%E4%BA%BA%E6%B0%91%E5%85%B1%E5%92%8C%E5%9B%BD%E6%9C%BA%E5%9C%BA%E8%BF%90%E8%90%A5%E7%BB%9F%E8%AE%A1%E5%88%97%E8%A1%A8#2019%E5%B9%B4,https://en.wikipedia.org/wiki/Lincang_Airport,LNJ,ZPLC,"296,386","4,086",(2021)
275,Q1013770,Dehong Mangshi Airport,ZPMS,LUM,1316000,98.547777777778,24.4,,,2122958,2122958,http://www.caac.gov.cn/XXGK/XXGK/TJSJ/202104/P020210409601938094774.xls,https://en.wikipedia.org/wiki/Dehong_Mangshi_Airport,LUM,ZPMS,"1,237,937","12,584",(2021)
276,Q10877536,Lugu Lake Airport,ZPNL,NLH,258869,100.75738889,27.54380556,3293,,215886,215886,https://zh.wikipedia.org/wiki/%E4%B8%AD%E5%8D%8E%E4%BA%BA%E6%B0%91%E5%85%B1%E5%92%8C%E5%9B%BD%E6%9C%BA%E5%9C%BA%E8%BF%90%E8%90%A5%E7%BB%9F%E8%AE%A1%E5%88%97%E8%A1%A8#2019%E5%B9%B4,https://en.wikipedia.org/wiki/Ninglang_Luguhu_Airport,NLH,ZPNL,"74,373","1,380",(2021)
277,Q3756143,Pu'er Simao Airport,ZPSM,SYM,2637000,100.959,22.7933,,,620978,639929,https://zh.wikipedia.org/wiki/%E4%B8%AD%E5%8D%8E%E4%BA%BA%E6%B0%91%E5%85%B1%E5%92%8C%E5%9B%BD%E6%9C%BA%E5%9C%BA%E8%BF%90%E8%90%A5%E7%BB%9F%E8%AE%A1%E5%88%97%E8%A1%A8#2019%E5%B9%B4,https://en.wikipedia.org/wiki/Pu%27er_Simao_Airport,SYM,ZPSM,"577,917","8,311",(2021)
278,Q1433107,Tengchong Tuofeng Airport,ZPTC,TCZ,644765,98.485136,24.940149,,,1367494,1367494,http://www.caac.gov.cn/XXGK/XXGK/TJSJ/202104/P020210409601938094774.xls,https://en.wikipedia.org/wiki/Tengchong_Tuofeng_Airport,TCZ,ZPTC,"665,308","7,696",(2021)
279,Q1014302,Wenshan Puzhehei Airport,ZPWS,WNH,3503000,104.24305555556,23.375833333333,1590,,165426,268322,http://www.caac.gov.cn/XXGK/XXGK/TJSJ/202104/P020210409601938094774.xls,https://en.wikipedia.org/wiki/Wenshan_Puzhehei_Airport,WNH,ZPWS,"268,322","13,210",(2021)
280,Q3756103,Zhaotong Airport,ZPZT,ZAT,5092000,103.75666666667,27.327833333333,,,369390,430381,http://www.caac.gov.cn/XXGK/XXGK/TJSJ/202104/P020210409601938094774.xls,https://en.wikipedia.org/wiki/Zhaotong_Airport,ZAT,ZPZT,"430,381","6,000",(2021)
281,Q1197691,Hangzhou Xiaoshan International Airport,ZSHC,HGH,11936010,120.43444444444,30.229444444444,7,3600,40108405,40108405,https://zh.wikipedia.org/wiki/%E4%B8%AD%E5%8D%8E%E4%BA%BA%E6%B0%91%E5%85%B1%E5%92%8C%E5%9B%BD%E6%9C%BA%E5%9C%BA%E8%BF%90%E8%90%A5%E7%BB%9F%E8%AE%A1%E5%88%97%E8%A1%A8#2019%E5%B9%B4,https://en.wikipedia.org/wiki/Hangzhou_Xiaoshan_International_Airport,HGH,ZSHC,"28,163,820","238,269",(2021)
282,Q1014276,Taizhou Luqiao Airport,ZSLQ,HYN,6622888,121.42861111111,28.562222222222,,,1381321,1381321,http://www.caac.gov.cn/XXGK/XXGK/TJSJ/202104/P020210409601938094774.xls,https://en.wikipedia.org/wiki/Taizhou_Luqiao_Airport,HYN,ZSLQ,"1,338,960","12,081",(2021)
283,Q3243622,Ningbo Lishe International Airport,ZSNB,NGB,9404283,121.46194444444,29.826666666667,4,,12414007,12414007,http://www.caac.gov.cn/XXGK/XXGK/TJSJ/202104/P020210409601938094774.xls,https://en.wikipedia.org/wiki/Ningbo_Lishe_International_Airport,NGB,ZSNB,"9,462,501","77,705",(2021)
284,Q1014270,Quzhou Airport,ZSJU,JUZ,2276184,118.89944444444,28.965833333333,,,404092,470235,https://zh.wikipedia.org/wiki/%E4%B8%AD%E5%8D%8E%E4%BA%BA%E6%B0%91%E5%85%B1%E5%92%8C%E5%9B%BD%E6%9C%BA%E5%9C%BA%E8%BF%90%E8%90%A5%E7%BB%9F%E8%AE%A1%E5%88%97%E8%A1%A8#2019%E5%B9%B4,https://en.wikipedia.org/wiki/Quzhou_Airport,JUZ,ZSJU,"470,235","6,308",(2021)
285,Q716323,Wenzhou Longwan International Airport,ZSWZ,WNZ,9572903,120.85194444444,27.911944444444,,,12291707,12291707,http://www.caac.gov.cn/XXGK/XXGK/TJSJ/202104/P020210409601938094774.xls,https://en.wikipedia.org/wiki/Wenzhou_Longwan_International_Airport,WNZ,ZSWZ,"9,231,409","80,592",(2021)
286,Q2566737,Yiwu Airport,ZSYW,YIW,1234015,120.03222222222,29.344722222222,,,2029109,2029109,https://zh.wikipedia.org/wiki/%E4%B8%AD%E5%8D%8E%E4%BA%BA%E6%B0%91%E5%85%B1%E5%92%8C%E5%9B%BD%E6%9C%BA%E5%9C%BA%E8%BF%90%E8%90%A5%E7%BB%9F%E8%AE%A1%E5%88%97%E8%A1%A8#2019%E5%B9%B4,https://en.wikipedia.org/wiki/Yiwu_Airport,YIW,ZSYW,"1,677,265","16,506",(2021)
287,Q498954,Zhoushan Putuoshan Airport,ZSZS,HSN,1157817,122.36222222222,29.934166666667,,,1521949,1521949,https://zh.wikipedia.org/wiki/%E4%B8%AD%E5%8D%8E%E4%BA%BA%E6%B0%91%E5%85%B1%E5%92%8C%E5%9B%BD%E6%9C%BA%E5%9C%BA%E8%BF%90%E8%90%A5%E7%BB%9F%E8%AE%A1%E5%88%97%E8%A1%A8#2019%E5%B9%B4,https://en.wikipedia.org/wiki/Zhoushan_Putuoshan_Airport,HSN,ZSZS,"1,483,700","23,045",(2021)
288,Q1141511,Komatsu Airport,RJNK,KMQ,1129362,136.4075,36.393888888889,7,,1770007,2644936,https://www.komatsuairport.jp/docs/%E5%B0%8F%E6%9D%BE%E7%A9%BA%E6%B8%AF%E3%81%AE%E6%A6%82%E8%A6%81R02.pdf,https://en.wikipedia.org/wiki/Komatsu_Airport,KMQ,RJNK,"1,844,117",,(2015)
289,Q679345,Chubu Centrair International Airport,RJGG,NGO,2326844,136.80527777778,34.858333333333,4.572009,3500,,12356882,,https://en.wikipedia.org/wiki/Chubu_Centrair_International_Airport,NGO,RJGG,"12,043,636",,(2018)
290,Q652331,Matsumoto Airport,RJAF,MMJ,239115,137.92277777778,36.166666666667,657.4548942,,,136444,https://www.cab.mlit.go.jp/tcab/img/statistics/excel/H30.riyougaikyou1-311.xlsx,https://en.wikipedia.org/wiki/Matsumoto_Airport,MMJ,RJAF,"112,618",,(2015)
291,Q1197536,Niigata Airport,RJSN,KIJ,790646,139.11166666667,37.955833333333,2,2500,,1445166,https://en.wikipedia.org/wiki/List_of_the_busiest_airports_in_Japan,https://en.wikipedia.org/wiki/Niigata_Airport,KIJ,RJSN,"984,629",,(2015)
292,Q1209993,Shizuoka Airport,RJNS,FSZ,685589,138.18944444444,34.796111111111,132,,,717363,https://en.wikipedia.org/wiki/List_of_the_busiest_airports_in_Japan,https://en.wikipedia.org/wiki/Shizuoka_Airport,FSZ,RJNS,"699,276",,(2015)
293,Q1191625,Toyama Airport,RJNT,TOY,413028,137.1875,36.648333333333,38.7096762,,,1380660,https://en.wikipedia.org/wiki/List_of_the_busiest_airports_in_Japan,https://en.wikipedia.org/wiki/Toyama_Airport,TOY,RJNT,"736,740",,(2015)
294,Q1432192,Noto Airport,RJNW,NTQ,23906,136.96222222222,37.293333333333,218.8468308,,165493,170335,https://ja.wikipedia.org/wiki/%E8%83%BD%E7%99%BB%E7%A9%BA%E6%B8%AF#%E5%88%A9%E7%94%A8%E7%8A%B6%E6%B3%81,https://en.wikipedia.org/wiki/Noto_Airport,NTQ,RJNW,"156,374",,(2015)
295,Q82240,Hiroshima Airport,RJOA,HIJ,1198021,132.91944444444,34.436111111111,331.0134516,3000,,3439088,https://en.wikipedia.org/wiki/List_of_the_busiest_airports_in_Japan,https://en.wikipedia.org/wiki/Hiroshima_Airport,HIJ,RJOA,"2,669,210",,(2015)
296,Q1139412,Izumo Airport,RJOC,IZO,171995,132.89,35.413611111111,1.8288036,,,1002395,https://en.wikipedia.org/wiki/List_of_the_busiest_airports_in_Japan,https://en.wikipedia.org/wiki/Izumo_Airport,IZO,RJOC,"832,825",,(2015)
297,Q1431559,Iwami Airport,RJOW,IWJ,44118,131.79027777778,34.676388888889,53.9497062,,,28932,https://view.officeapps.live.com/op/view.aspx?src=https%3A%2F%2Fwww.cab.mlit.go.jp%2Fwcab%2Ffile%2Friyousyukei202201.xlsx&wdOrigin=BROWSELINK,https://en.wikipedia.org/wiki/Iwami_Airport,IWJ,RJOW,"129,632",,(2015)
298,Q1322391,Okayama Airport,RJOB,OKJ,720043,133.85527777778,34.756944444444,239.268471,,,1592750,https://en.wikipedia.org/wiki/List_of_the_busiest_airports_in_Japan,https://en.wikipedia.org/wiki/Okayama_Airport,OKJ,RJOB,"1,391,723",,(2015)
299,Q1148447,Oki Airport,RJNO,OKI,13595,133.32333333333,36.178333333333,79.8577572,,,30964,https://view.officeapps.live.com/op/view.aspx?src=https%3A%2F%2Fwww.cab.mlit.go.jp%2Fwcab%2Ffile%2Friyousyukei202201.xlsx&wdOrigin=BROWSELINK,https://en.wikipedia.org/wiki/Oki_Airport,OKI,RJNO,"58,436",,(2015)
300,Q1433078,Tottori Airport,RJOR,TTJ,187323,134.1625,35.53,14.6304288,,,400576,https://en.wikipedia.org/wiki/List_of_the_busiest_airports_in_Japan,https://en.wikipedia.org/wiki/Tottori_Airport,TTJ,RJOR,"366,925",,(2015)
301,Q1328906,Yamaguchi Ube Airport,RJDC,UBJ,193761,131.27861111111,33.93,4.572009,,,1039282,https://en.wikipedia.org/wiki/List_of_the_busiest_airports_in_Japan,https://en.wikipedia.org/wiki/Yamaguchi_Ube_Airport,UBJ,RJDC,"918,238",,(2015)
302,Q1141913,Miho-Yonago Airport,RJOH,YGJ,147210,133.23916666667,35.493333333333,3.9624078,,,864528,https://en.wikipedia.org/wiki/List_of_the_busiest_airports_in_Japan,https://en.wikipedia.org/wiki/Miho-Yonago_Airport,YGJ,RJOH,"666,445",,(2015)
303,Q387048,Asahikawa Airport,RJEC,AKJ,331392,142.4475,43.670833333333,210,2500,,1312219,https://en.wikipedia.org/wiki/List_of_the_busiest_airports_in_Japan,https://en.wikipedia.org/wiki/Asahikawa_Airport,AKJ,RJEC,"1,148,825",,(2015)
304,Q1155685,Hakodate Airport,RJCH,HKD,251891,140.82194444444,41.77,34,3000,,2432822,https://en.wikipedia.org/wiki/List_of_the_busiest_airports_in_Japan,https://en.wikipedia.org/wiki/Hakodate_Airport,HKD,RJCH,"1,772,052",,(2015)
305,Q1333925,Kushiro Airport,RJCK,KUH,165699,144.19305555556,43.040833333333,94.7929866,2500,,979014,https://en.wikipedia.org/wiki/List_of_the_busiest_airports_in_Japan,https://en.wikipedia.org/wiki/Kushiro_Airport,KUH,RJCK,"685,379",,(2015)
306,Q651482,Memanbetsu Airport,RJCM,MMB,6966,144.16416666667,43.880555555556,33.2232654,,,1088195,https://en.wikipedia.org/wiki/List_of_the_busiest_airports_in_Japan,https://en.wikipedia.org/wiki/Memanbetsu_Airport,MMB,RJCM,"757,103",,(2015)
307,Q1432054,Monbetsu Airport,RJEB,MBE,21317,143.40416666667,44.304166666667,17.6784348,,,70747,https://www.cab.mlit.go.jp/tcab/img/statistics/excel/H30.riyougaikyou1-311.xlsx,https://en.wikipedia.org/wiki/Monbetsu_Airport,MBE,RJEB,"71,802",,(2015)
308,Q1432123,Nakashibetsu Airport,RJCN,SHB,23211,144.96,43.5775,65.2273284,,,227855,https://en.wikipedia.org/wiki/List_of_the_busiest_airports_in_Japan,https://en.wikipedia.org/wiki/Nemuro_Nakashibetsu_Airport,SHB,RJCN,"197,245",,(2015)
309,Q1332254,Tokachi-Obihiro Airport,RJCB,OBO,165684,143.21722222222,42.733333333333,149.352294,,,709084,https://en.wikipedia.org/wiki/List_of_the_busiest_airports_in_Japan,https://en.wikipedia.org/wiki/Tokachi%E2%80%93Obihiro_Airport,OBO,RJCB,"605,703",,(2015)
310,Q1432227,Okushiri Airport,RJEO,OIR,,139.43277778,42.07166667,49.0728966,,,9527,https://www.cab.mlit.go.jp/tcab/img/statistics/excel/H30.riyougaikyou1-311.xlsx,https://en.wikipedia.org/wiki/Okushiri_Airport,OIR,RJEO,"10,995",,(2015)
311,Q1049856,Rishiri Airport,RJER,RIS,1966,141.1875,45.241944444444,30.1752594,,,44771,https://www.cab.mlit.go.jp/tcab/img/statistics/excel/H30.riyougaikyou1-311.xlsx,https://en.wikipedia.org/wiki/Rishiri_Airport,RIS,RJER,"38,183",,(2015)
312,Q908296,New Chitose Airport,RJCC,CTS,1959313,141.69228333333,42.7752,21,3000,,23313489,https://www.new-chitose-airport.jp/en/business/airport/passengers/since_opening.html,https://en.wikipedia.org/wiki/New_Chitose_Airport,CTS,RJCC,"22,718,612",,(2017
313,Q2902013,Okadama Airport,RJCO,OKD,1959313,141.38138888889,43.1175,7.9248156,,,380605,https://en.wikipedia.org/wiki/List_of_the_busiest_airports_in_Japan,https://en.wikipedia.org/wiki/Okadama_Airport,OKD,RJCO,"175,846",,(2015)
314,Q1368344,Wakkanai Airport,RJCW,WKJ,33036,141.80222222222,45.404444444444,8,2200,,300261,https://en.wikipedia.org/wiki/List_of_the_busiest_airports_in_Japan,https://en.wikipedia.org/wiki/Wakkanai_Airport,WKJ,RJCW,"184,779",,(2015)
315,Q741372,Kobe Airport,RJBE,UKB,1521707,135.22388888889,34.632777777778,7,2500,3362720,3362720,https://www.mlit.go.jp/common/001571728.xlsx,https://en.wikipedia.org/wiki/Kobe_Airport,UKB,RJBE,"1,752,629",,(2021)
316,Q1046748,Osaka International Airport,RJOO,ITM,2751862,135.43822222222,34.785527777778,15,3000,,19316582,https://www.vinci.com/commun/communiques.nsf/97ECF602CD75DFEEC125837F00581951/$file/CPVINCI_VA_TraficQ4_190111_VF.pdf,https://en.wikipedia.org/wiki/Itami_Airport,ITM,RJOO,"14,541,936",,(2015)
317,Q193682,Kansai International Airport,RJBB,KIX,19302746,135.23027777778,34.430555555556,5,4000,,28961000,https://en.wikipedia.org/wiki/List_of_the_busiest_airports_in_Japan,https://en.wikipedia.org/wiki/Kansai_International_Airport,KIX,RJBB,,"185,174",(2017)
318,Q1064050,Nanki-Shirahama Airport,RJBD,SHM,,135.36444444444,33.662222222222,89.3065758,,,118472,https://view.officeapps.live.com/op/view.aspx?src=https%3A%2F%2Fwww.cab.mlit.go.jp%2Fwcab%2Ffile%2Friyousyukei202201.xlsx&wdOrigin=BROWSELINK,https://en.wikipedia.org/wiki/Nanki%E2%80%93Shirahama_Airport,SHM,RJBD,"127,472",,(2015)
319,Q1931194,Tajima Airport,RJBT,TJH,77005,134.78694444444,35.512777777778,176.1747468,,,18760,https://view.officeapps.live.com/op/view.aspx?src=https%3A%2F%2Fwww.cab.mlit.go.jp%2Fwcab%2Ffile%2Friyousyukei202201.xlsx&wdOrigin=BROWSELINK,https://en.wikipedia.org/wiki/Tajima_Airport,TJH,RJBT,"28,632",,(2015)
320,Q2512004,Hachijojima Airport,RJTH,HAC,6977,139.78583333333,33.115,91.7449806,,,263941,https://en.wikipedia.org/wiki/List_of_the_busiest_airports_in_Japan,https://en.wikipedia.org/wiki/Hachijojima_Airport,HAC,RJTH,"180,257",,(2015)
321,Q1196909,Oshima Airport,RJTO,OIM,,139.36027777778,34.781944444444,37.7952744,,,26017,https://www.cab.mlit.go.jp/tcab/img/statistics/excel/H30.riyougaikyou1-311.xlsx,https://en.wikipedia.org/wiki/Oshima_Airport,OIM,RJTO,"37,942",,(2015)
322,Q2234528,Miyakejima Airport,RJTQ,MYE,2324,139.56027777778,34.073611111111,19.812039,,,27015,https://www.cab.mlit.go.jp/tcab/img/statistics/excel/H30.riyougaikyou1-311.xlsx,https://en.wikipedia.org/wiki/Miyakejima_Airport,MYE,RJTQ,"22,153",,(2015)
323,Q1156420,Ibaraki Airport,RJAH,IBR,283835,140.41472222222,36.181666666667,32.6136642,,,733397,https://en.wikipedia.org/wiki/List_of_the_busiest_airports_in_Japan,https://en.wikipedia.org/wiki/Ibaraki_Airport,IBR,RJAH,"538,227",,(2015)
324,Q204853,Tokyo International Airport,RJTT,HND,14047594,139.78111111111,35.553333333333,6.4008126,3360,,87337479,,https://en.wikipedia.org/wiki/Haneda_Airport,HND,RJTT,"64,203,600",,(2022)
325,Q36454,Narita International Airport,RJAA,NRT,14047594,140.38845,35.7649,42.9768846,4000,44344739,44344739,https://www.naa.jp/en/airport/pdf/statistics1978-2019.pdf,https://en.wikipedia.org/wiki/Narita_International_Airport,NRT,RJAA,"15,415,924","165,264",(2022)
326,Q1430769,Amami Airport,RJKA,ASJ,41049,129.7125,28.430833333333,4,,,848783,https://view.officeapps.live.com/op/view.aspx?src=https%3A%2F%2Fwww.cab.mlit.go.jp%2Fwcab%2Ffile%2Friyousyukei202201.xlsx&wdOrigin=BROWSELINK,https://en.wikipedia.org/wiki/Amami_Airport,ASJ,RJKA,"676,601",,(2015)
327,Q1137465,Fukuoka Airport,RJFF,FUK,1603043,130.45166666667,33.584444444444,30,2800,,24639104,https://en.wikipedia.org/wiki/List_of_the_busiest_airports_in_Japan,https://en.wikipedia.org/wiki/Fukuoka_Airport,FUK,RJFF,"20,968,463",,(2015)
328,Q1431393,Fukue Airport,RJFE,FUJ,34425,128.83277777778,32.666388888889,77,2000,,192252,https://view.officeapps.live.com/op/view.aspx?src=https%3A%2F%2Fwww.cab.mlit.go.jp%2Fwcab%2Ffile%2Friyousyukei202201.xlsx&wdOrigin=BROWSELINK,https://en.wikipedia.org/wiki/Fukue_Airport,FUJ,RJFE,"134,308",,(2015)
329,Q1038664,Iki Airport,RJDB,IKI,24873,129.78583333333,33.749166666667,12.4968246,,,25685,https://view.officeapps.live.com/op/view.aspx?src=https%3A%2F%2Fwww.cab.mlit.go.jp%2Fwcab%2Ffile%2Friyousyukei202201.xlsx&wdOrigin=BROWSELINK,https://en.wikipedia.org/wiki/Iki_Airport,IKI,RJDB,"30,852",,(2015)
330,Q1156310,Kagoshima Airport,RJFK,KOJ,593754,130.72166666667,31.8,272,3000,,6261349,https://en.wikipedia.org/wiki/List_of_the_busiest_airports_in_Japan,https://en.wikipedia.org/wiki/Kagoshima_Airport,KOJ,RJFK,"5,220,710",,(2015)
331,Q1927346,Kikai Airport,RJKI,KKX,,129.92805555556,28.321388888889,4.572009,,,57595,https://view.officeapps.live.com/op/view.aspx?src=https%3A%2F%2Fwww.cab.mlit.go.jp%2Fwcab%2Ffile%2Friyousyukei202201.xlsx&wdOrigin=BROWSELINK,https://en.wikipedia.org/wiki/Kikai_Airport,KKX,RJKI,"79,892",,(2015)
332,Q594223,Kitakyushu Airport,RJFR,KKJ,935084,131.035,33.845555555556,6,2500,,1749962,https://en.wikipedia.org/wiki/List_of_the_busiest_airports_in_Japan,https://en.wikipedia.org/wiki/Kitakyushu_Airport,KKJ,RJFR,"1,317,504",,(2015)
333,Q1199773,Kumamoto Airport,RJFT,KMJ,738567,130.85527777778,32.837222222222,193,3000,,3409760,https://en.wikipedia.org/wiki/List_of_the_busiest_airports_in_Japan,https://en.wikipedia.org/wiki/Kumamoto_Airport,KMJ,RJFT,"3,241,633",,(2015)
334,Q1378640,Miyazaki Airport,RJFM,KMI,1061032,131.44861111111,31.877222222222,5.7912114,2500,,3348025,https://en.wikipedia.org/wiki/List_of_the_busiest_airports_in_Japan,https://en.wikipedia.org/wiki/Miyazaki_Airport,KMI,RJFM,"2,976,563",,(2015)
335,Q133796,Nagasaki Airport,RJFU,NGS,404656,129.91361111111,32.916944444444,2,3000,,3229969,https://en.wikipedia.org/wiki/List_of_the_busiest_airports_in_Japan,https://en.wikipedia.org/wiki/Nagasaki_Airport,NGS,RJFU,"3,110,686",,(2015)
336,Q1334587,Oita Airport,RJFO,OIT,477186,131.73722222222,33.479444444444,5.1816102,3000,,2059481,https://view.officeapps.live.com/op/view.aspx?src=https%3A%2F%2Fwww.cab.mlit.go.jp%2Fwcab%2Ffile%2Friyousyukei202201.xlsx&wdOrigin=BROWSELINK,https://en.wikipedia.org/wiki/Oita_Airport,OIT,RJFO,"1,849,834",,(2015)
337,Q2901234,Okinoerabu Airport,RJKB,OKE,,128.70555555556,27.431666666667,26.8224528,,,80086,https://view.officeapps.live.com/op/view.aspx?src=https%3A%2F%2Fwww.cab.mlit.go.jp%2Fwcab%2Ffile%2Friyousyukei202201.xlsx&wdOrigin=BROWSELINK,https://en.wikipedia.org/wiki/Okinoerabu_Airport,OKE,RJKB,"99,586",,(2015)
