,QID,itemLabel,icao,iata,max_population,lon,lat,alt_in_m,max_rwy_lenght_m,max_passengers19,maxpax,traffic_source_url,wdpa_link,wpda_iata,wpda_icao,wpda_passengers,wpda_movements,wpda_year_data
0,Q178162,Graz Airport,LOWG,GRZ,289440,15.439166666667,46.993055555556,340,3000,1036929,1036929,https://www.flughafen-graz.at/unternehmen/presse/aktuelles/ansicht/fhg/flughafen-graz-schliesst-2019-mit-neuem-passagierrekord-ab.html,https://en.wikipedia.org/wiki/Graz_Airport,GRZ,LOWG,"226,561","4,653",(2021)
1,Q694434,Innsbruck Airport,LOWI,INN,131961,11.343888888889,47.260277777778,581,2000,1144541,1144541,http://www.statistik.at/web_de/statistiken/energie_umwelt_innovation_mobilitaet/verkehr/luftfahrt/personenverkehr/070712.html,https://en.wikipedia.org/wiki/Innsbruck_Airport,INN,LOWI,"125,495","2,010",(2021)
2,Q694404,Klagenfurt Airport,LOWK,KLU,101403,14.337222222222,46.642777777778,448.6664832,2720,209434,522697,http://www.statistik.at/web_de/statistiken/energie_umwelt_innovation_mobilitaet/verkehr/luftfahrt/personenverkehr/070712.html,https://en.wikipedia.org/wiki/Klagenfurt_Airport,KLU,LOWK,"29,577",544,(2021)
3,Q700852,Linz Airport,LOWL,LNZ,210165,14.1875,48.233333333333,299,3000,436024,803163,https://de.wikipedia.org/wiki/Flughafen_Linz,https://en.wikipedia.org/wiki/Linz_Airport,LNZ,LOWL,"68,509","3,677",(2021)
4,Q251538,Salzburg Airport,LOWS,SZG,155021,13.003333333333,47.794444444444,430.0736466,2750,1717991,1946422,http://www.statistik.at/web_de/statistiken/energie_umwelt_innovation_mobilitaet/verkehr/luftfahrt/personenverkehr/070712.html,https://en.wikipedia.org/wiki/Salzburg_Airport,SZG,LOWS,"299,845","3,677",(2021)
5,Q32999,Wien-Schwechat Airport,LOWW,VIE,1973403,16.569722,48.110278,179,3600,31662189,31662189,http://www.statistik.at/web_de/statistiken/energie_umwelt_innovation_mobilitaet/verkehr/luftfahrt/personenverkehr/070712.html,https://en.wikipedia.org/wiki/Vienna_International_Airport,VIE,LOWW,"10,405,815","111,567",(2021)
6,Q1431001,Bol Airport,LDSB,BWK,14434,16.679722222222,43.285833333333,541.3258656,,25342,30170,https://www.exyuaviation.com/2020/01/ex-yu-airport-race-2019.html,https://en.wikipedia.org/wiki/Bra%C4%8D_Airport,BWK,LDSB,"15,948",,(2022)
7,Q1147000,Dubrovnik Airport,LDDU,DBV,42615,18.268333333333,42.561388888889,161,,2896227,2896227,https://www.exyuaviation.com/2021/02/ex-yu-airports-race-2020.html,https://en.wikipedia.org/wiki/Dubrovnik_Airport,DBV,LDDU,"2,149,181",,(2022)
8,Q1423278,Osijek Airport,LDOS,OSI,84104,18.810277777778,45.462777777778,88.392174,,46378,67235,https://www.exyuaviation.com/2020/01/ex-yu-airport-race-2019.html,https://en.wikipedia.org/wiki/Osijek_Airport,OSI,LDOS,"15,875",,(2022)
9,Q389327,Pula Airport,LDPL,PUY,57053,13.922222222222,44.893611111111,83.5153644,2950,777568,777568,https://www.exyuaviation.com/2020/01/ex-yu-airport-race-2019.html,https://en.wikipedia.org/wiki/Pula_Airport,PUY,LDPL,"395,178",,(2022)
10,Q1141414,Rijeka Airport,LDRI,RJK,128624,14.570277777778,45.216944444444,84.7345668,2500,200841,200841,http://rijeka-airport.hr/pages/sub/25/doc_en/RJK-traffic-2019.pdf,https://en.wikipedia.org/wiki/Rijeka_Airport,RJK,LDRI,"164,086",,(2022)
11,Q1125392,Split Airport,LDSP,SPU,178102,16.298055555556,43.538888888889,24.0792474,2550,3301930,3301930,https://www.exyuaviation.com/2020/01/ex-yu-airport-race-2019.html,https://en.wikipedia.org/wiki/Split_Airport,SPU,LDSP,"2,908,577",,(2022)
12,Q155359,Zadar Airport,LDZD,ZAD,75082,15.346666666667,44.108333333333,88.0873734,2500,801347,1102381,https://www.exyuaviation.com/2020/01/ex-yu-airport-race-2019.html,https://en.wikipedia.org/wiki/Zadar_Airport,ZAD,LDZD,"1,102,381",,(2022)
13,Q128016,Zagreb Airport,LDZA,ZAG,809268,16.068888888889,45.743055555556,107.5946118,3251,3435531,3435531,https://ir.tav.aero/uploads/documents/Documents07012021164620_.xlsx,https://en.wikipedia.org/wiki/Zagreb_Airport,ZAG,LDZA,"3,124,605","42,310",(2022)
14,Q748848,Brno-Tuřany Airport,LKTB,BRQ,379466,16.693888888889,49.151388888889,237.1348668,2650,543633,557952,http://www.brno-airport.cz/letiste/statistiky/,https://en.wikipedia.org/wiki/Brno%E2%80%93Tu%C5%99any_Airport,BRQ,LKTB,471,,(2022)
15,Q1431669,Karlovy Vary Airport,LKKV,KLV,45500,12.915,50.203055555556,606,2150,,100872,https://ec.europa.eu/eurostat/web/products-datasets/-/avia_tf_apal,https://en.wikipedia.org/wiki/Karlovy_Vary_Airport,KLV,LKKV,"62,434","7,736",(2019)
16,Q922954,Leoš Janáček Airport Ostrava,LKMT,OSR,279791,18.110833333333,49.696111111111,257,3500,323320,377936,,https://en.wikipedia.org/wiki/Leo%C5%A1_Jan%C3%A1%C4%8Dek_Airport_Ostrava,OSR,LKMT,37,,(2020)
17,Q2115080,Pardubice Airport,LKPD,PED,88520,15.738611111111,50.013333333333,226,2500,102045,184140,https://www.airport-pardubice.cz/o-letisti/,https://en.wikipedia.org/wiki/Pardubice_Airport,PED,LKPD,"147,572",,(2018[1])
18,Q99172,Václav Havel Airport Prague,LKPR,PRG,1275406,14.26,50.100833333333,376,3715,17804900,17804900,https://www.prg.aero/sites/default/files/obsah/B2B/Files/Statistics%20and%20reports/Prague%20Airport%20Traffic%20Reports/Traffic_report_1912_public.pdf,https://en.wikipedia.org/wiki/V%C3%A1clav_Havel_Airport_Prague,PRG,LKPR,"17,804,900[1][2]","154,777",(2019)
19,Q160556,Berlin Brandenburg Airport,EDDB,BER,3677472,13.500671666667,52.362246666667,46.9392924,4000,,19846114,https://www.adv.aero/wp-content/uploads/2015/11/12.2022-ADV-Monatsstatistik.pdf,https://en.wikipedia.org/wiki/Berlin_Brandenburg_Airport,BER,EDDB,"19,845,046","00,164,293",(2022)
20,Q665365,Bremen Airport,EDDW,BRE,563290,8.7866666666667,53.047333333333,4.2672084,2040,2308338,2773129,https://www.adv.aero/wp-content/uploads/2016/02/12.2019-ADV-Monatsstatistik.pdf,https://en.wikipedia.org/wiki/Bremen_Airport,BRE,EDDW,"1,493,007","25,083",(2022)
21,Q157741,Cologne Bonn Airport,EDDK,CGN,1073096,7.12254,50.87826,76.8097512,3815,12400000,12958200,https://www.koeln-bonn-airport.de/presse/pressemitteilungen/124-millionen-passagiere-in-2019.html,https://en.wikipedia.org/wiki/Cologne_Bonn_Airport,CGN,EDDK,"8,756,712","120,975",(2022)
22,Q313587,Dortmund Airport,EDLW,DTM,586852,7.6122222222222,51.518333333333,129.2354544,2000,2719566,2719566,https://www.adv.aero/wp-content/uploads/2016/02/12.2019-ADV-Monatsstatistik.pdf,https://en.wikipedia.org/wiki/Dortmund_Airport,DTM,EDLW,"2,586,238","36,258",(2022)
23,Q657005,Dresden Airport,EDDC,DRS,561922,13.768,51.134344444444,229.8196524,2850,1595675,1917915,https://www.adv.aero/wp-content/uploads/2016/02/12.2019-ADV-Monatsstatistik.pdf,https://en.wikipedia.org/wiki/Dresden_Airport,DRS,EDDC,"838,387","020,119",(2022)
24,Q58226,Düsseldorf Airport,EDDL,DUS,619477,6.7666666666667,51.289444444444,44.8056882,3000,25507566,25507566,https://www.adv.aero/wp-content/uploads/2016/02/12.2019-ADV-Monatsstatistik.pdf,https://en.wikipedia.org/wiki/D%C3%BCsseldorf_Airport,DUS,EDDL,"16,071,936","140,598",(2022)
25,Q567426,Emden Airport,EDWE,EME,49523,7.2256666666667,53.391,0.6096012,1300,,,,https://en.wikipedia.org/wiki/Emden_Airport,EME,EDWE,"21,984","8,391",(2005)
26,Q703794,Erfurt-Weimar Airport,EDDE,ERF,213835,10.958056,50.979722,316,,156326,526241,https://www.adv.aero/wp-content/uploads/2016/02/12.2019-ADV-Monatsstatistik.pdf,https://en.wikipedia.org/wiki/Erfurt%E2%80%93Weimar_Airport,ERF,EDDE,"137,779","6,048",(2022)
27,Q46033,Frankfurt Airport,EDDF,FRA,759224,8.5704555555556,50.033305555556,110.9474184,4000,70560987,70560987,https://www.fraport.com/en/our-company/investors/traffic-figures.html,https://en.wikipedia.org/wiki/Frankfurt_Airport,FRA,EDDF,"48,918,482","382,211",(2022)
28,Q682232,Friedrichshafen Airport,EDNY,FDH,61561,9.5114861111111,47.671316666667,416.9672208,2356,489921,658104,https://www.adv.aero/wp-content/uploads/2016/02/12.2019-ADV-Monatsstatistik.pdf,https://en.wikipedia.org/wiki/Friedrichshafen_Airport,FDH,EDNY,"339,556","029,105",(2022)
29,Q158211,Frankfurt-Hahn Airport,EDFH,HHN,4084844,7.2610777777778,49.945819444444,502.6161894,3800,1496362,4014898,https://www.adv.aero/wp-content/uploads/2016/02/12.2019-ADV-Monatsstatistik.pdf,https://en.wikipedia.org/wiki/Frankfurt%E2%80%93Hahn_Airport,HHN,EDFH,"1,377,087","0,015,965",(2022)
30,Q27706,Hamburg Airport,EDDH,HAM,1853935,9.991111,53.630278,14.6304288,3666,17308773,17622997,https://www.adv.aero/wp-content/uploads/2016/02/12.2019-ADV-Monatsstatistik.pdf,https://en.wikipedia.org/wiki/Hamburg_Airport,HAM,EDDH,"11,096,296","00,109,510",(2022)
31,Q170169,Hannover Airport,EDDV,HAJ,535932,9.6926337299163,52.459479315765,55.7785098,3800,6301366,6324634,https://www.adv.aero/wp-content/uploads/2016/02/12.2019-ADV-Monatsstatistik.pdf,https://en.wikipedia.org/wiki/Hannover_Airport,HAJ,EDDV,"3,961,983","0,061,871",(2022)
32,Q556109,Heide-Büsum Airport,EDXB,HEI,21844,8.8986111111111,54.153611111111,2.1336042,720,,19162,https://ec.europa.eu/eurostat/web/products-datasets/-/avia_tf_apal,https://en.wikipedia.org/wiki/Heide%E2%80%93B%C3%BCsum_Airport,HEI,EDXB,,,
33,Q20739,Heligoland Airfield,EDXH,HGL,1284,7.9144444444444,54.185833333333,2.4384048,,,24724,https://ec.europa.eu/eurostat/web/products-datasets/-/avia_tf_apal,https://en.wikipedia.org/wiki/Heligoland_Airfield,HGL,EDXH,,,
34,Q531664,Heringsdorf Airport,EDAH,HDF,1135,14.152222222222,53.878611111111,29,2305,,41733,,https://en.wikipedia.org/wiki/Heringsdorf_Airport,HDF,EDAH,,,
35,Q529143,Kassel Airport,EDVK,KSF,200406,9.3921583333333,51.420791666667,262.4333166,2500,120712,131817,"https://de.wikipedia.org/wiki/Flughafen_Kassel-Calden#Zahlen,_Daten_und_Fakten",https://en.wikipedia.org/wiki/Kassel_Airport,KSF,EDVK,"115,597","029,814",(2022)
36,Q668382,Leipzig/Halle Airport,EDDP,LEJ,615081,12.236388888889,51.423888888889,143.256282,3600,2615801,2719256,https://www.adv.aero/wp-content/uploads/2016/02/12.2019-ADV-Monatsstatistik.pdf,https://en.wikipedia.org/wiki/Leipzig/Halle_Airport,LEJ,EDDP,"1,558,602","0,080,902",(2022)
37,Q706450,Lübeck Airport,EDHL,LBC,216277,10.719167,53.805278,17,2102,,715731,https://www.adv.aero/wp-content/uploads/2015/11/12.2022-ADV-Monatsstatistik.pdf,https://en.wikipedia.org/wiki/L%C3%BCbeck_Airport,LBC,EDHL,"82,590","23,089",(2022)
38,Q315060,Mannheim City Airport,EDFM,MHG,311831,8.5142638888889,49.472705555556,94.1833854,1066,,40796,https://ec.europa.eu/eurostat/web/products-datasets/-/avia_tf_apal,https://en.wikipedia.org/wiki/Mannheim_City_Airport,MHG,EDFM,,,
39,Q651281,Memmingen Airport,EDJA,FMM,44721,10.239483333333,47.988822222222,633.6804474,2630,1722764,1991654,https://www.allgaeu-airport.de/neuer-passagierrekord-in-2019/,https://en.wikipedia.org/wiki/Memmingen_Airport,FMM,EDJA,"1,991,208","0,024,648",(2022)
40,Q131402,Munich Airport,EDDM,MUC,1487708,11.786111111111,48.353888888889,453.2384922,4000,47959885,47959885,https://www.munich-airport.de/_b/0000000000000008249199bb5e1c6211/vb_2019.pdf,https://en.wikipedia.org/wiki/Munich_Airport,MUC,EDDM,"31,642,738","00,285,028",(2022)
41,Q673760,Münster Osnabrück International Airport,EDDG,FMO,317713,7.68483,52.134642,48.4632954,2170,986260,1764885,https://www.adv.aero/wp-content/uploads/2016/02/12.2019-ADV-Monatsstatistik.pdf,https://en.wikipedia.org/wiki/M%C3%BCnster_Osnabr%C3%BCck_Airport,FMO,EDDG,"830,772","037,678",(2022)
42,Q265994,Nuremberg Airport,EDDN,NUE,510632,11.078055555556,49.498611111111,318.8214276,2700,4111689,4466864,https://www.adv.aero/wp-content/uploads/2016/02/12.2019-ADV-Monatsstatistik.pdf,https://en.wikipedia.org/wiki/Nuremberg_Airport,NUE,EDDN,"3,272,138","0,048,216",(2022)
43,Q685536,Paderborn Lippstadt Airport,EDLP,PAD,152531,8.6172222222222,51.615277777778,213.0556194,2172,693404,1363236,https://www.adv.aero/wp-content/uploads/2016/02/12.2019-ADV-Monatsstatistik.pdf,https://en.wikipedia.org/wiki/Paderborn_Lippstadt_Airport,PAD,EDLP,"502,621","038,035",(2022)
44,Q820223,Rostock Airport,ETNL,RLG,208400,12.278333333333,53.918333333333,42.672084,,148165,296027,,https://en.wikipedia.org/wiki/Rostock%E2%80%93Laage_Airport,RLG,ETNL,"60,997","15,440",(2022)
45,Q697101,Saarbrücken Airport,EDDR,SCN,179634,7.1095083333333,49.214552777778,322.4790348,1990,366574,518283,https://www.adv.aero/wp-content/uploads/2016/02/12.2019-ADV-Monatsstatistik.pdf,https://en.wikipedia.org/wiki/Saarbr%C3%BCcken_Airport,SCN,EDDR,"300,034","006,882",(2022)
46,Q158732,Stuttgart Airport,EDDS,STR,626275,9.2219638888889,48.689877777778,388.9255656,3345,12721441,12721441,https://www.adv.aero/wp-content/uploads/2016/02/12.2019-ADV-Monatsstatistik.pdf,https://en.wikipedia.org/wiki/Stuttgart_Airport,STR,EDDS,"6,986,943","0,085,822",(2022)
47,Q632410,Niederrhein Airport,EDLV,NRN,310974,6.1419388888889,51.601388888889,32.3088636,2440,1231100,2896730,https://www.adv.aero/wp-content/uploads/2016/02/12.2019-ADV-Monatsstatistik.pdf,https://en.wikipedia.org/wiki/Weeze_Airport,NRN,EDLV,"1,036,882","0,015,533",(2022)
48,Q20755,Sylt Airport,EDXW,GWT,18118,8.3405555555556,54.913333333333,16,2120,,138621,https://www.adv.aero/wp-content/uploads/2015/11/12.2022-ADV-Monatsstatistik.pdf,https://en.wikipedia.org/wiki/Sylt_Airport,GWT,EDXW,"119,763","012,641",(2022)
49,Q819200,Zweibrücken airfield,EDRZ,ZQW,34091,7.4006472222222,49.209552777778,345.3390798,2675,,,,https://en.wikipedia.org/wiki/Zweibr%C3%BCcken_Airport,ZQW,EDRZ,"220,740","11,855",(2013)
50,Q500945,Budapest Ferenc Liszt International Airport,LHBP,BUD,1706851,19.261944444444,47.439444444444,151,3750,16173489,16173489,http://statinfo.ksh.hu/Statinfo/haViewer.jsp,https://en.wikipedia.org/wiki/Budapest_Ferenc_Liszt_International_Airport,BUD,LHBP,"12,200,000[2]",,(2022)
51,Q903138,Debrecen International Airport,LHDC,DEB,200974,21.615277777778,47.488888888889,110,2498,601236,601236,http://statinfo.ksh.hu/Statinfo/haViewer.jsp,https://en.wikipedia.org/wiki/Debrecen_International_Airport,DEB,LHDC,381,,(2018)
52,Q1187044,Hévíz–Balaton Airport,LHSM,SOB,1906,17.159166666667,46.686388888889,124.3586448,2500,9123,105697,https://statinfo.ksh.hu/Statinfo/haViewer.jsp,https://en.wikipedia.org/wiki/H%C3%A9v%C3%ADz%E2%80%93Balaton_Airport,SOB,LHSM,,,
53,Q1407275,Bydgoszcz Ignacy Jan Paderewski Airport,EPBY,BZG,337666,17.977777777778,53.096666666667,72,2500,425230,425230,http://plb.pl/en/statistics/,https://en.wikipedia.org/wiki/Bydgoszcz_Ignacy_Jan_Paderewski_Airport,BZG,EPBY,"127,959[1]",,(2020)
54,Q779984,Gdańsk Lech Wałęsa Airport,EPGD,GDN,748986,18.466111111111,54.3775,1487,2800,5376120,5376120,https://www.airport.gdansk.pl/airport/news/we-are-breaking-the-records-the-summary-of-2019-at-the-gdansk-airport-n1735.html,https://en.wikipedia.org/wiki/Gda%C5%84sk_Lech_Wa%C5%82%C4%99sa_Airport,GDN,EPGD,"4,576,705","43,987",(2022)
55,Q1162558,Katowice International Airport,EPKT,KTW,285711,19.08,50.474166666667,303.276597,,4843889,4843889,https://www.katowice-airport.com/en/our-airport/statistics/annual-statistics,https://en.wikipedia.org/wiki/Katowice_Airport,KTW,EPKT,"4,843,889[4]","41,606[4]",(2019)
56,Q581545,John Paul II International Airport Kraków-Balice,EPKK,KRK,800653,19.784722222222,50.077777777778,241.0972746,2550,8410817,8410817,https://hotlot.pl/lotnisko-krakow-balice/,https://en.wikipedia.org/wiki/Krak%C3%B3w_John_Paul_II_International_Airport,KRK,EPKK,"7,394,219[1]","51,777",(2022)
57,Q764554,Łódź Władysław Reymont Airport,EPLL,LCJ,670642,19.398055555556,51.721944444444,184,2500,241707,463459,https://www.airport.lodz.pl/pl/moje-lotnisko/statystyki,https://en.wikipedia.org/wiki/%C5%81%C3%B3d%C5%BA_W%C5%82adys%C5%82aw_Reymont_Airport,LCJ,EPLL,"241,707",,(2019)
58,Q620446,Lublin Airport,EPLB,LUZ,334681,22.690277777778,51.231944444444,193,2520,357366,455188,https://ec.europa.eu/eurostat/web/products-datasets/-/avia_tf_apal,https://en.wikipedia.org/wiki/Lublin_Airport,LUZ,EPLB,"455,188","4,980",(2018)
59,Q1432944,Szczytno-Szymany International Airport,EPSY,SZY,22389,20.937777777778,53.481944444444,141,2500,154499,154499,https://www.pasazer.com/statystyki-lotnisk/pl,https://en.wikipedia.org/wiki/Olsztyn-Mazury_Airport,SZY,EPSY,121,,(2018)
60,Q1361639,Poznań-Ławica Airport,EPPO,POZ,546859,16.82633,52.42103,94,2504,2379635,2476304,https://poznanairport.pl/en/about-us/statistics/,https://en.wikipedia.org/wiki/Pozna%C5%84%E2%80%93%C5%81awica_Airport,POZ,EPPO,"2,476,304","24,391",(2018)
61,Q1432651,Rzeszów-Jasionka Airport,EPRZ,RZE,195871,22.018888888889,50.11,211,3200,772238,772238,https://www.pasazer.com/statystyki-lotnisk/pl,https://en.wikipedia.org/wiki/Rzesz%C3%B3w%E2%80%93Jasionka_Airport,RZE,EPRZ,"772,238","18,806",(2019)
62,Q1432917,"""Solidarity"" Szczecin-Goleniów Airport",EPSC,SZZ,396168,14.902222222222,53.584722222222,47,2500,576072,598971,http://www.airport.com.pl/biznes/statystyki/rok-2019/,https://en.wikipedia.org/wiki/Solidarity_Szczecin%E2%80%93Goleni%C3%B3w_Airport,SZZ,EPSC,"598,971[1]","8,757",(2018)
63,Q465071,Warsaw Chopin Airport,EPWA,WAW,1860281,20.967222222222,52.165833333333,110.0330166,3689,18876854,18876854,https://ec.europa.eu/eurostat/web/products-datasets/-/avia_tf_apal,https://en.wikipedia.org/wiki/Warsaw_Chopin_Airport,WAW,EPWA,"18,860,000",,(2019)
64,Q1401995,Warsaw-Modlin Mazovia Airport,EPMO,WMI,1860281,20.651666666667,52.451111111111,104,,3106041,3126428,https://hotlot.pl/lotnisko-modlin/,https://en.wikipedia.org/wiki/Warsaw_Modlin_Airport,WMI,EPMO,"3,126,428","22,383",(2022)
65,Q2066541,Radom-Sadków Airport,EPRA,RDO,201601,21.213611111111,51.389166666667,186,2000,0,9903,https://www.ulc.gov.pl/_download/regulacja_rynku/statystyki/2019/wg_portow_lotniczych_4kw2019.pdf,https://en.wikipedia.org/wiki/Warsaw_Radom_Airport,RDO,EPRA,9,,(2016)
66,Q1107152,Wrocław – Copernicus Airport,EPWR,WRO,672929,16.885833333333,51.102777777778,123,,3548016,3548016,,https://en.wikipedia.org/wiki/Copernicus_Airport_Wroc%C5%82aw,WRO,EPWR,"3,347,223","17,2",(2018)
67,Q1433282,Zielona Góra Airport,EPZG,IEG,140002,15.798611111111,52.138611111111,59,2500,33078,33078,https://www.ulc.gov.pl/_download/regulacja_rynku/statystyki/2019/wg_portow_lotniczych_4kw2019.pdf,https://en.wikipedia.org/wiki/Zielona_G%C3%B3ra_Airport,IEG,EPZG,"20,596",516,(2021)
68,Q828379,M. R. Štefánik Airport,LZIB,BTS,475503,17.212777777778,48.17,132.8930616,2950,2290242,2292712,https://www.bts.aero/o-letisku/press/tlacove-spravy/letisko-v-bratislave-vybavilo-vlani-2-29-miliona-cestujucich/,https://en.wikipedia.org/wiki/Bratislava_Airport,BTS,LZIB,"1,406,284",24,(2022)
69,Q777774,Košice International Airport,LZKZ,KSC,229040,21.241111111111,48.663055555556,230.124453,,555325,590919,https://www.viennaairport.com/unternehmen/presse__news/presseaussendungen__news_2?news_beitrag_id=1578990620436,https://en.wikipedia.org/wiki/Ko%C5%A1ice_International_Airport,KSC[1],LZKZ[1],"539,749","4,398",(2022)
70,Q1432421,Poprad-Tatry Airport,LZTT,TAT,49855,20.241111111111,49.073611111111,718,,88387,88542,,https://en.wikipedia.org/wiki/Poprad%E2%80%93Tatry_Airport,TAT,LZTT,,,
71,Q1432898,Sliač Airport,LZSL,SLD,4980,19.134166666667,48.638055555556,305,,,41866,https://ec.europa.eu/eurostat/web/products-datasets/-/avia_tf_apal,https://en.wikipedia.org/wiki/Slia%C4%8D_Airport,SLD,LZSL,,,
72,Q1109558,Ljubljana Jože Pučnik Airport,LJLJ,LJU,284293,14.456111111111,46.224444444444,388,3300,1721355,1812411,https://www.fraport.com/content/dam/fraport-company/documents/investoren/eng/finanz--und-verkehrszahlen/verkehrszahlen/group/2019/fraport-group-traffic-figures-12_2019.xlsx/_jcr_content/renditions/original.media_file.download_attachment.file/fraport-group-traffic-figures-12_2019.xlsx,https://en.wikipedia.org/wiki/Ljubljana_Jo%C5%BEe_Pu%C4%8Dnik_Airport,LJU,LJLJ,"970,152","21,571",(2022)
73,Q1030725,Maribor Edvard Rusjan Airport,LJMB,MBX,96211,15.686111111111,46.48,267,2500,,85000,,https://en.wikipedia.org/wiki/Maribor_Edvard_Rusjan_Airport,MBX,LJMB,"2,435",,(2018)
74,Q156971,EuroAirport Basel-Mulhouse-Freiburg,LFSB,EAP,231848,7.5291666666667,47.59,269.748531,3900,9090312,9090312,https://www.aeroport.fr/uploads/documents/conference%20de%20presse/DOSSIER%20DE%20PRESSE_STATS_2018_def.pdf,https://en.wikipedia.org/wiki/EuroAirport_Basel_Mulhouse_Freiburg,"BSL, MLH, EAP[1]",LFSB,"3,613,074","56,156",(2021[2])
75,Q619845,Bern Airport,LSZB,BRN,133883,7.499167,46.912222,510,1730,35787,258543,https://www.pxweb.bfs.admin.ch/pxweb/fr/px-x-1107020000_102/px-x-1107020000_102/px-x-1107020000_102.px/table/tableViewLayout2/?rxid=9100d307-0155-4d13-8d61-868d2d264b74,https://en.wikipedia.org/wiki/Bern_Airport,BRN,LSZB / LSMB,"6,022","44,651",(2021[1])
76,Q289972,Geneva International Airport,LSGG,GVA,201818,6.10921,46.23756,430,3900,17926629,17926629,https://www.gva.ch/fr/Downloads/Aeroport/2021_Statistiques-Geneve-Aeroport.pdf,https://en.wikipedia.org/wiki/Geneva_Airport,GVA,LSGG,"14,085,282","163,168",(2022[2])
77,Q661389,Lugano Airport,LSZA,LUG,63185,8.910278,46.003611,278.892549,1420,,383585,https://www.bfs.admin.ch/bfs/fr/home/statistiques/mobilite-transports/themes-transversaux.assetdetail.6146617.html,https://en.wikipedia.org/wiki/Lugano_Airport,LUG,LSZA,"97,375","18,306",(2018)
78,Q687463,Sion Airport,LSGS,SIR,34708,7.3269444444444,46.219166666667,482.1945492,2000,,15161,https://dam-api.bfs.admin.ch/hub/api/dam/assets/21124581/master,https://en.wikipedia.org/wiki/Sion_Airport,SIR,LSGS / LSMS,"35,929","43,586",(2022)
79,Q689836,St. Gallen-Altenrhein Airport,LSZR,ACH,75833,9.5619444444444,47.485,398.0695836,1455,,115710,https://www.bfs.admin.ch/bfs/fr/home/statistiques/mobilite-transports/themes-transversaux.assetdetail.6146617.html,https://en.wikipedia.org/wiki/St._Gallen%E2%80%93Altenrhein_Airport,ACH,LSZR,,,
80,Q15114,Zürich Airport,LSZH,ZRH,436332,8.5491666666667,47.464722222222,431.5976496,3700,31478748,31478748,https://www.pxweb.bfs.admin.ch/pxweb/fr/px-x-1107020000_102/px-x-1107020000_102/px-x-1107020000_102.px/table/tableViewLayout2/?rxid=9100d307-0155-4d13-8d61-868d2d264b74,https://en.wikipedia.org/wiki/Zurich_Airport,ZRH,LSZH,"22,561,132","216,585",(2022)
81,Q27048,Brest Airport,UMBB,BQT,,23.898055555556,52.108333333333,143,2620,,4197,,https://en.wikipedia.org/wiki/Brest_Airport,BQT,UMBB,,,
82,Q27546,Gomel Airport,UMGG,GME,501802,31.016666666667,52.526944444444,143,2570,,,,https://en.wikipedia.org/wiki/Gomel_Airport,GME,UMGG,,,
83,Q27049,Hrodna Airport,UMMG,GNA,358717,24.053888888889,53.601944444444,120,2548,,180145,,https://en.wikipedia.org/wiki/Grodno_Airport,GNA,UMMG,,,
84,Q1373238,Minsk-1 Airport,UMMM,MHP,1995471,27.539722222222,53.864444444444,228,,,,,https://en.wikipedia.org/wiki/Minsk-1_Airport,MHP,UMMM,,,
85,Q777855,Minsk National Airport,UMMS,MSQ,1995471,28.0325,53.8825,203.9116014,3641,5101766,5101766,https://en.wikipedia.org/wiki/List_of_the_busiest_airports_in_the_former_USSR,https://en.wikipedia.org/wiki/Minsk_National_Airport,MSQ,UMMS,"5,101,766",,(2019[2])
86,Q844951,Chișinău International Airport,LUKK,KIV,639000,28.930833333333,46.927777777778,122,3590,2995530,2995530,https://www.caa.md/rom/statistics/,https://en.wikipedia.org/wiki/Chi%C8%99in%C4%83u_International_Airport,KIV,LUKK,"2,995,530","27,092",(2019)
87,Q762179,Belgorod International Airport,UUOB,EGO,391702,36.59,50.643333333333,224,,,582534,https://en.wikipedia.org/wiki/List_of_the_busiest_airports_in_Russia,https://en.wikipedia.org/wiki/Belgorod_International_Airport,EGO,UUOB,582.531,,(2021)
88,Q1995004,Ivanovo Yuzhny Airport,UUBI,IWA,401505,40.933333333333,56.941666666667,125,,,68125,https://www.favt.ru/dejatelnost-ajeroporty-i-ajerodromy-osnovnie-proizvodstvennie-pokazateli-aeroportov-obyom-perevoz/,https://en.wikipedia.org/wiki/Ivanovo_Yuzhny_Airport,IWA,UUBI,,,
89,Q4147325,"""Kaluga"" (Grabtsevo) Airport",UUBC,KLF,331842,36.368889,54.546667,203,,,200133,,https://en.wikipedia.org/wiki/Kaluga_(Grabtsevo)_Airport,KLF,UUBC,,,
90,Q1958564,Kostroma Airport,UUBA,KMW,277393,41.02,57.796666666667,136,,,8601,https://www.favt.ru/public/materials//4/3/a/9/7/43a97dc7930186c6dcb90c17e799a247.pdf,https://en.wikipedia.org/wiki/Kostroma_Airport,KMW,,,,
91,Q2992490,Kursk Vostochny Airport,UUOK,URS,,36.296666666667,51.751666666667,209,,,103222,https://www.favt.ru/public/materials//4/3/a/9/7/43a97dc7930186c6dcb90c17e799a247.pdf,https://en.wikipedia.org/wiki/Kursk_Vostochny_Airport,URS,UUOK,,,
92,Q1431886,Lipetsk Airport,UUOL,LPK,503216,39.538333333333,52.703333333333,178,,,63821,https://www.favt.ru/public/materials//4/3/a/9/7/43a97dc7930186c6dcb90c17e799a247.pdf,https://en.wikipedia.org/wiki/Lipetsk_Airport,LPK,UUOL,,,
93,Q186614,Domodedovo International Airport,UUDD,DME,12455682,37.906111111111,55.408611111111,179.2227528,3800,,33039501,https://en.wikipedia.org/wiki/List_of_the_busiest_airports_in_Russia,https://en.wikipedia.org/wiki/Moscow_Domodedovo_Airport,DME,UUDD,"29,403,704","234,700",(2018)
94,Q192733,Sheremetyevo International Airport,UUEE,SVO,12455682,37.414722222222,55.972777777778,192,3700,,45836000,https://www.svo.aero/ru/press_center/press_releases/sheremetyevo-airport-served-over-28-point-4-million-passengers-in-2022,https://en.wikipedia.org/wiki/Sheremetyevo_International_Airport,SVO,UUEE,"49,933,000","386,370",(2019)
95,Q273462,Vnukovo International Airport,UUWW,VKO,12455682,37.2675,55.596111111111,209.0932116,3500,,21487000,,https://en.wikipedia.org/wiki/Vnukovo_International_Airport,VKO,UUWW,"21,478,486","163,600",(2018)
96,Q1996169,Tambov Donskoye Airport,UUOT,TBW,4308,41.482777777778,52.805833333333,126,,,31826,https://www.favt.ru/public/materials//7/3/1/0/c/7310ce947182b9a1da6b2f757d1f9329.xlsx,https://en.wikipedia.org/wiki/Tambov_Donskoye_Airport,TBW,,,,
97,Q4415721,Semyazino Airport,UUBL,,,40.315,56.126666666667,169,,,3752,https://www.favt.ru/public/materials//4/3/a/9/7/43a97dc7930186c6dcb90c17e799a247.pdf,https://en.wikipedia.org/wiki/Semyazino_Airport,,,,,
98,Q2444515,Voronezh International Airport,UUOO,VOZ,1050602,39.23,51.815,157,,,807500,https://en.wikipedia.org/wiki/List_of_the_busiest_airports_in_Russia,https://en.wikipedia.org/wiki/Voronezh_International_Airport,VOZ,UUOO,853,,(2019)
99,Q1147420,Tunoshna Airport,UUDL,IAR,601403,40.157369444444,57.560666666667,86.868171,,,98557,https://www.favt.ru/public/materials//4/3/a/9/7/43a97dc7930186c6dcb90c17e799a247.pdf,https://en.wikipedia.org/wiki/Tunoshna_Airport,IAR,UUDL,,,
100,Q631156,Aldan Airport,UEEA,ADH,20595,125.4,58.6,683,1376,,3668,https://www.favt.ru/public/materials//4/3/a/9/7/43a97dc7930186c6dcb90c17e799a247.pdf,https://en.wikipedia.org/wiki/Aldan_Airport,ADH,UEEA,,,
101,Q1843329,Ugolny Airport,UHMA,DYR,15604,177.74166666667,64.735,59,,,110113,https://www.favt.ru/public/materials//4/3/a/9/7/43a97dc7930186c6dcb90c17e799a247.pdf,https://en.wikipedia.org/wiki/Ugolny_Airport,DYR,UHMA,,,
102,Q4079251,Batagay Airport,UEBB,BQJ,3647,134.695,67.64888889,226,,,30884,https://www.favt.ru/public/materials//4/3/a/9/7/43a97dc7930186c6dcb90c17e799a247.pdf,https://en.wikipedia.org/wiki/Batagay_Airport,BQJ,UEBB,,,
103,Q4081610,Belaya Gora Airport,UESG,BGN,2058,146.2347222,68.55694444,25,,,11884,https://www.favt.ru/public/materials//4/3/a/9/7/43a97dc7930186c6dcb90c17e799a247.pdf,https://en.wikipedia.org/wiki/Belaya_Gora_Airport,BGN,UESG,,,
104,Q267645,Ignatyevo Airport,UHBB,BQS,224419,127.41333333333,50.425,195,2821,,710956,https://en.wikipedia.org/wiki/List_of_the_busiest_airports_in_Russia,https://en.wikipedia.org/wiki/Ignatyevo_Airport,BQS,UHBB,,,
105,Q2476695,Chersky Airport,UESS,CYX,2555,161.33666666667,68.743333333333,6,,,7404,https://www.favt.ru/public/materials//4/3/a/9/7/43a97dc7930186c6dcb90c17e799a247.pdf,https://en.wikipedia.org/wiki/Chersky_Airport,CYX,UESS,,,
106,Q2670713,Chokurdakh Airport,UESO,CKH,2085,147.89666666667,70.625,46,2000,,6710,https://www.favt.ru/public/materials//4/3/a/9/7/43a97dc7930186c6dcb90c17e799a247.pdf,https://en.wikipedia.org/wiki/Chokurdakh_Airport,CKH,UESO,,,
107,Q15213673,Deputatsky Airport,UEWD,DPT,2932,139.90194444,69.3925,,,,14213,https://www.favt.ru/public/materials//4/3/a/9/7/43a97dc7930186c6dcb90c17e799a247.pdf,https://en.wikipedia.org/wiki/Deputatsky_Airport,DPT,UEBD,,,
108,Q4219459,Keperveyem Airport,UHMK,KPW,5319,166.13888889,67.84694444,,,,39044,https://www.favt.ru/dejatelnost-ajeroporty-i-ajerodromy-osnovnie-proizvodstvennie-pokazateli-aeroportov-obyom-perevoz/,https://en.wikipedia.org/wiki/Keperveyem_Airport,KPW,UHMK,,,
109,Q372280,Khabarovsk Novy Airport,UHHH,KHV,616242,135.16922,48.52417,74,4000,,2134476,https://en.wikipedia.org/wiki/List_of_the_busiest_airports_in_Russia,https://en.wikipedia.org/wiki/Khabarovsk_Novy_Airport,KHV,UHHH,"2,134,476",,(2018)
110,Q2359055,Moma Airport,UEMA,MQJ,,143.26333333333,66.45,200,1800,,10143,https://www.favt.ru/public/materials//4/3/a/9/7/43a97dc7930186c6dcb90c17e799a247.pdf,https://en.wikipedia.org/wiki/Moma_Airport,MQJ,UEMA,,,
111,Q2071461,Komsomolsk-on-Amur Airport,UHKK,KXK,249810,136.93333333333,50.408333333333,28,,,15182,https://www.favt.ru/public/materials//4/3/a/9/7/43a97dc7930186c6dcb90c17e799a247.pdf,https://en.wikipedia.org/wiki/Komsomolsk-on-Amur_Airport,KXK,UHKK,,,
112,Q513609,Lavrentiya Airport,UHML,,,-170.99666666667,65.58,9,,,7836,https://www.favt.ru/public/materials//4/3/a/9/7/43a97dc7930186c6dcb90c17e799a247.pdf,https://en.wikipedia.org/wiki/Lavrentiya_Airport,,UHML,,,
113,Q2067431,Lensk Airport,UERL,ULK,23479,114.82583333333,60.720555555556,244,,,84303,http://favt.gov.ru/public/materials//1/7/9/0/5/17905110b885bcbd02a510303917bb16.xlsx,https://en.wikipedia.org/wiki/Lensk_Airport,ULK,UERL,,,
114,Q1431997,Sokol Airport,UHMM,GDX,92782,150.72055555556,59.911111111111,175,,,471164,https://www.favt.ru/public/materials//4/3/a/9/7/43a97dc7930186c6dcb90c17e799a247.pdf,https://en.wikipedia.org/wiki/Sokol_Airport,GDX,UHMM,425652,,(2019)
115,Q4282160,Markovo Airport,UHMO,KVM,578,170.41416667,64.66527778,,,,3332,https://www.favt.ru/public/materials//4/3/a/9/7/43a97dc7930186c6dcb90c17e799a247.pdf,https://en.wikipedia.org/wiki/Markovo_Airport,KVM,UHMO,,,
116,Q2312453,Mirny Airport,UERR,MJZ,35223,114.02222222222,62.534444444444,352,,,400000,https://www.favt.ru/public/materials//4/3/a/9/7/43a97dc7930186c6dcb90c17e799a247.pdf,https://en.wikipedia.org/wiki/Mirny_Airport,MJZ,UERR,,,
117,Q2359047,Chulman Airport,UELL,NER,7775,124.91166666667,56.913333333333,857,,,115336,https://www.favt.ru/public/materials//4/3/a/9/7/43a97dc7930186c6dcb90c17e799a247.pdf,https://en.wikipedia.org/wiki/Chulman_Neryungri_Airport,NER,UELL,,,
118,Q15263129,Nyurba Airport,UENN,NYR,9786,118.34694444,63.29722222,,,,20460,https://www.favt.ru/public/materials//4/3/a/9/7/43a97dc7930186c6dcb90c17e799a247.pdf,https://en.wikipedia.org/wiki/Nyurba_Airport,NYR,UENN,,,
119,Q2903185,Okha Airport,UHSH,OHH,,142.88009167,53.51777778,35.5,,,50625,https://favt.gov.ru/dejatelnost-ajeroporty-i-ajerodromy-osnovnie-proizvodstvennie-pokazateli-aeroportov-obyom-perevoz/,https://en.wikipedia.org/wiki/Okha_Airport,OHH,UHSH,,,
120,Q2074948,Petropavlovsk-Kamchatsky Airport,UHPP,PKC,181216,158.4536,53.1677,40,,,772717,https://en.wikipedia.org/wiki/List_of_the_busiest_airports_in_Russia,https://en.wikipedia.org/wiki/Elizovo_Airport,PKC,UHPP,"554,057[1]",,(2020)
121,Q2587323,Pevek Airport,UHMP,PWE,4053,170.59666666667,69.783333333333,3,2500,,24391,https://www.favt.ru/public/materials//4/3/a/9/7/43a97dc7930186c6dcb90c17e799a247.pdf,https://en.wikipedia.org/wiki/Pevek_Airport,PWE,UHMP,,,
122,Q2560037,Provideniya Bay Airport,UHMD,PVS,2151,-173.24333333333,64.378333333333,22,,,6200,https://www.favt.ru/public/materials//4/3/a/9/7/43a97dc7930186c6dcb90c17e799a247.pdf,https://en.wikipedia.org/wiki/Provideniya_Bay_Airport,PVS,UHMD,,,
123,Q7425711,Saskylakh Airport,UERS,SYS,2317,114.08222222,71.92888889,,,,15000,https://www.favt.ru/public/materials//4/3/a/9/7/43a97dc7930186c6dcb90c17e799a247.pdf,https://en.wikipedia.org/wiki/Saskylakh_Airport,SYS,UERS,,,
124,Q16897241,Srednekolymsk Airport,UESK,SEK,3489,153.735,67.4797,,,,21468,https://www.favt.ru/public/materials//4/3/a/9/7/43a97dc7930186c6dcb90c17e799a247.pdf,https://en.wikipedia.org/wiki/Srednekolymsk_Airport,SEK,UESK,,,
125,Q7641676,Suntar Airport,UENS,SUY,,117.635,62.185,,,,11303,https://www.favt.ru/public/materials//4/3/a/9/7/43a97dc7930186c6dcb90c17e799a247.pdf,https://en.wikipedia.org/wiki/Suntar_Airport,SUY,UENS,,,
126,Q2084892,Tiksi Airport,UEST,IKS,4537,128.90277777778,71.6975,233,3001,,18947,https://www.favt.ru/public/materials//4/3/a/9/7/43a97dc7930186c6dcb90c17e799a247.pdf,https://en.wikipedia.org/wiki/Tiksi_Airport,IKS,UEST,,,
127,Q2573798,Polyarny Airport,UERP,PYJ,11676,112.05,66.416666666667,509,3100,,69141,https://www.favt.ru/dejatelnost-ajeroporty-i-ajerodromy-osnovnie-proizvodstvennie-pokazateli-aeroportov-obyom-perevoz/,https://en.wikipedia.org/wiki/Polyarny_Airport,PYJ,UERP,,,
128,Q4108317,Verkhnevilyuysk Airport,UENI,VHV,6329,120.276,63.4592,,,,3666,https://www.favt.ru/public/materials//4/3/a/9/7/43a97dc7930186c6dcb90c17e799a247.pdf,https://en.wikipedia.org/wiki/Verkhnevilyuysk_Airport,VHV,UENI,,,
129,Q2075224,Vilyuisk Airport,UENW,VYI,11095,121.69333333333,63.756666666667,110,,,4639,https://www.favt.ru/public/materials//4/3/a/9/7/43a97dc7930186c6dcb90c17e799a247.pdf,https://en.wikipedia.org/wiki/Vilyuysk_Airport,VYI,UENW,,,
130,Q577067,Vladivostok International Airport,UHWW,VVO,606589,132.15138888889,43.399166666667,14.0208276,,,2633630,https://en.wikipedia.org/wiki/List_of_the_busiest_airports_in_Russia,https://en.wikipedia.org/wiki/Vladivostok_International_Airport,VVO,UHWW,"2,634,000",,(2018)
131,Q1431588,Yakutsk Airport,UEEE,YKS,311760,129.77166666667,62.093333333333,99,,,986064,https://en.wikipedia.org/wiki/List_of_the_busiest_airports_in_Russia,https://en.wikipedia.org/wiki/Yakutsk_Airport,YKS,UEEE,"908,384",,(2018)
132,Q4290372,Yuzhno-Kurilsk Mendeleyevo Airport,UHSM,DEE,7777,145.85,44.0333,,,,24348,https://www.favt.ru/public/materials//4/3/a/9/7/43a97dc7930186c6dcb90c17e799a247.pdf,https://en.wikipedia.org/wiki/Yuzhno-Kurilsk_Mendeleyevo_Airport,DEE [1],UHSM [2],,,
133,Q766117,Yuzhno-Sakhalinsk Airport,UHSS,UUS,194882,142.7237,46.8869,18,,,1069627,https://en.wikipedia.org/wiki/List_of_the_busiest_airports_in_Russia,https://en.wikipedia.org/wiki/Yuzhno-Sakhalinsk_Airport,UUS,UHSS,"1,209,161",,(2019)
134,Q16897741,Zyryanka Airport,UESU,ZKP,2793,150.708,65.7383,,,,,,https://en.wikipedia.org/wiki/Zyryanka_Airport,ZKP,UESU,,,
135,Q2426249,Grozny Airport,URMG,GRV,291687,45.699722222222,43.388333333333,157,2500,,283202,https://en.wikipedia.org/wiki/List_of_the_busiest_airports_in_Russia,https://en.wikipedia.org/wiki/Grozny_Airport,GRV,URMG,,,
136,Q2452159,Uytash Airport,URML,MCX,592976,47.652294444444,42.816822222222,4,,,2030044,https://en.wikipedia.org/wiki/List_of_the_busiest_airports_in_Russia,https://en.wikipedia.org/wiki/Uytash_Airport,MCX,URML,"1,290,000",,(2018)
137,Q1432042,Mineralnye Vody Airport,URMM,MRV,122395,43.083333333333,44.225,321,,,3204709,https://ru.wikipedia.org/wiki/%D0%A1%D0%BF%D0%B8%D1%81%D0%BE%D0%BA_%D0%BD%D0%B0%D0%B8%D0%B1%D0%BE%D0%BB%D0%B5%D0%B5_%D0%B7%D0%B0%D0%B3%D1%80%D1%83%D0%B6%D0%B5%D0%BD%D0%BD%D1%8B%D1%85_%D0%BF%D0%B0%D1%81%D1%81%D0%B0%D0%B6%D0%B8%D1%80%D1%81%D0%BA%D0%B8%D1%85_%D0%B0%D1%8D%D1%80%D0%BE%D0%BF%D0%BE%D1%80%D1%82%D0%BE%D0%B2_%D0%BF%D0%BE%D1%81%D1%82%D1%81%D0%BE%D0%B2%D0%B5%D1%82%D1%81%D0%BA%D0%BE%D0%B3%D0%BE_%D0%BF%D1%80%D0%BE%D1%81%D1%82%D1%80%D0%B0%D0%BD%D1%81%D1%82%D0%B2%D0%B0,https://en.wikipedia.org/wiki/Mineralnye_Vody_Airport,MRV,URMM,2,,(2018)
138,Q338911,Nalchik Airport,URMN,NAL,265162,43.638333333333,43.513333333333,432,2200,,236865,https://en.wikipedia.org/wiki/List_of_the_busiest_airports_in_Russia,https://en.wikipedia.org/wiki/Nalchik_Airport,NAL,URMN,,,
139,Q2545136,Stavropol Shpakovskoye Airport,URMT,STW,450680,42.113333333333,45.11,452,,,577007,http://favt.gov.ru/public/materials//1/7/9/0/5/17905110b885bcbd02a510303917bb16.xlsx,https://en.wikipedia.org/wiki/Stavropol_Shpakovskoye_Airport,STW,URMT,,,
140,Q948855,Beslan Airport,URMO,OGZ,306978,44.606666666667,43.205,510,3000,,705783,https://en.wikipedia.org/wiki/List_of_the_busiest_airports_in_Russia,https://en.wikipedia.org/wiki/Beslan_Airport,OGZ,URMO,,,
141,Q2025626,Amderma Airport,ULDD,AMV,548,61.563333333333,69.763333333333,4,2600,,1492,https://www.favt.ru/public/materials//4/3/a/9/7/43a97dc7930186c6dcb90c17e799a247.pdf,https://en.wikipedia.org/wiki/Amderma_Airport,AMV,ULDD,,,
142,Q1433005,Talagi Airport,ULAA,ARH,351488,40.716666666667,64.6,18.8976372,2500,,1064215,,https://en.wikipedia.org/wiki/Talagi_Airport,ARH,ULAA,"942,972",,(2018)
143,Q130915,Cherepovets Airport,ULWC,CEE,,38.028333333333,59.276666666667,115,2523,,189003,https://en.wikipedia.org/wiki/List_of_the_busiest_airports_in_Russia,https://en.wikipedia.org/wiki/Cherepovets_Airport,CEE,ULWC,,,
144,Q1431650,Khrabrovo Airport,UMKK,KGD,475056,20.5925,54.89,13,2500,,3910846,,https://en.wikipedia.org/wiki/Khrabrovo_Airport,KGD,UMKK,"2,149,413",,(2018)
145,Q1748568,Kirovsk-Apatity Airport,ULMK,KVK,55713,33.588055555556,67.463055555556,157,2496,,60119,https://www.favt.ru/public/materials//4/3/a/9/7/43a97dc7930186c6dcb90c17e799a247.pdf,https://en.wikipedia.org/wiki/Kirovsk%E2%80%93Apatity_Airport,KVK,,,,
146,Q2466858,Kotlas Airport,ULKK,KSZ,61805,46.696666666667,61.236666666667,56,,,10776,https://www.favt.ru/public/materials//4/3/a/9/7/43a97dc7930186c6dcb90c17e799a247.pdf,https://en.wikipedia.org/wiki/Kotlas_Airport,KSZ,ULKK,,,
147,Q1748483,Leshukonskoye Airport,ULAL,LDG,,45.722777777778,64.895833333333,67,,,6026,https://www.favt.ru/public/materials//4/3/a/9/7/43a97dc7930186c6dcb90c17e799a247.pdf,https://en.wikipedia.org/wiki/Leshukonskoye_Airport,LDG,ULAL,,,
148,Q1529017,Murmansk Airport,ULMM,MMK,292465,32.755947222222,68.7838,81,2500,,1355612,http://favt.gov.ru/public/materials//1/7/9/0/5/17905110b885bcbd02a510303917bb16.xlsx,https://en.wikipedia.org/wiki/Murmansk_Airport,MMK,ULMM,"938,022",,(2018)
149,Q2393084,Naryan-Mar Airport,ULAM,NNM,24775,53.125,67.64,11,,,222000,,https://en.wikipedia.org/wiki/Naryan-Mar_Airport,NNM,ULAM,,,
150,Q2401191,Pechora Airport,UUYP,PEX,40653,57.13,65.121666666667,60,,,5978,https://www.favt.ru/public/materials//4/3/a/9/7/43a97dc7930186c6dcb90c17e799a247.pdf,https://en.wikipedia.org/wiki/Pechora_Airport,PEX,UUYP,,,
151,Q2545143,Petrozavodsk Airport,ULPB,PES,278551,34.156666666667,61.885,46,,,30301,https://www.favt.ru/public/materials//4/3/a/9/7/43a97dc7930186c6dcb90c17e799a247.pdf,https://en.wikipedia.org/wiki/Petrozavodsk_Airport,PES,ULPB,,,
152,Q2719297,Pskov Airport,ULOO,PKV,209840,28.398333333333,57.785,47,,40000,107000,,https://en.wikipedia.org/wiki/Pskov_Airport,PKV,ULOO,,,
153,Q1748510,Solovki Airport,ULAS,CSH,,35.733333333333,65.03,0,,,11481,https://www.favt.ru/public/materials//4/3/a/9/7/43a97dc7930186c6dcb90c17e799a247.pdf,https://en.wikipedia.org/wiki/Solovki_Airport,CSH,,,,
154,Q690122,Pulkovo Airport,ULLI,LED,5384342,30.2625,59.800277777778,24,3780,19581262,19581262,https://www.fraport.com/content/dam/fraport-company/documents/investoren/eng/finanz--und-verkehrszahlen/verkehrszahlen/group/2019/fraport-group-traffic-figures-12_2019.xlsx/_jcr_content/renditions/original.media_file.download_attachment.file/fraport-group-traffic-figures-12_2019.xlsx,https://en.wikipedia.org/wiki/Pulkovo_Airport,LED,ULLI,"18,140,100","144,867",(2022[1])
155,Q61396,Syktyvkar Airport,UUYY,SCW,245313,50.838333333333,61.641666666667,99,2500,,563965,https://en.wikipedia.org/wiki/List_of_the_busiest_airports_in_Russia,https://en.wikipedia.org/wiki/Syktyvkar_Airport,SCW,UUYY,,,
156,Q2545098,Ukhta Airport,UUYH,UCT,97087,53.803333333333,63.566666666667,147,,,92498,https://www.favt.ru/public/materials//4/3/a/9/7/43a97dc7930186c6dcb90c17e799a247.pdf,https://en.wikipedia.org/wiki/Ukhta_Airport,UCT,UUYH,,,
157,Q2714240,Usinsk Airport,UUYS,USK,38376,57.366666666667,66.0,80,,,190082,https://en.wikipedia.org/wiki/List_of_the_busiest_airports_in_Russia,https://en.wikipedia.org/wiki/Usinsk_Airport,USK,UUYS,,,
158,Q4478587,Ust-Tsylma Airport,UUYX,UTS,4877,52.198888888889,65.433333333333,80,,,11948,https://www.favt.ru/public/materials//4/3/a/9/7/43a97dc7930186c6dcb90c17e799a247.pdf,https://en.wikipedia.org/wiki/Ust-Tsilma_Airport,UTS,UUYX,,,
159,Q7919017,Veliky Ustyug Airport,ULWU,VUS,31806,46.26,60.788333333333,101,,,,,https://en.wikipedia.org/wiki/Veliky_Ustyug_Airport,VUS,ULWU,,,
160,Q4123660,Vologda Airport,ULWW,VGD,,39.946666666667,59.281666666667,118,,,6207,https://www.favt.ru/public/materials//4/3/a/9/7/43a97dc7930186c6dcb90c17e799a247.pdf,https://en.wikipedia.org/wiki/Vologda_Airport,VGD,ULWW,,,
161,Q2718892,Vorkuta Airport,UUYW,VKT,52292,63.99,67.488333333333,183.6,,,33820,https://favt.gov.ru/dejatelnost-ajeroporty-i-ajerodromy-osnovnie-proizvodstvennie-pokazateli-aeroportov-obyom-perevoz/,https://en.wikipedia.org/wiki/Vorkuta_Airport,VKT,UUYW,,,
162,Q558204,Abakan International Airport,UNAA,ABA,181709,91.385861111111,53.743277777778,253,2500,,253108,http://favt.gov.ru/public/materials//1/7/9/0/5/17905110b885bcbd02a510303917bb16.xlsx,https://en.wikipedia.org/wiki/Abakan_International_Airport,ABA,UNAA,,,
163,Q4074738,Bagdarin aerodrome,UIUB,,4735,113.47722222,54.36861111,,,,,,https://en.wikipedia.org/wiki/Bagdarin_Airport,none,none,,,
164,Q1858312,Barnaul Airport,UNBB,BAX,631124,83.541666666667,53.363333333333,255,,,514693,https://favt.gov.ru/dejatelnost-ajeroporty-i-ajerodromy-osnovnie-proizvodstvennie-pokazateli-aeroportov-obyom-perevoz/,https://en.wikipedia.org/wiki/Barnaul_Airport,BAX,UNBB,,,
165,Q2125202,Baykit Airport,UNIB,,3293,96.355,61.676666666667,247,,,31268,https://www.favt.ru/public/materials//4/3/a/9/7/43a97dc7930186c6dcb90c17e799a247.pdf,https://en.wikipedia.org/wiki/Baykit_Airport,,UNIB,,,
166,Q2715707,Biysk Airport,UNBI,,200629,85.35,52.466666666667,189,,,,,https://en.wikipedia.org/wiki/Biysk_Airport,,UNBI,,,
167,Q582746,Bodaybo Airport,UIKB,ODO,12316,114.2425,57.866388888889,278,,,51910,https://www.favt.ru/public/materials//4/3/a/9/7/43a97dc7930186c6dcb90c17e799a247.pdf,https://en.wikipedia.org/wiki/Bodaybo_Airport,ODO,UIKB,,,
168,Q2310549,Bratsk Airport,UIBB,BTK,231602,101.69833333333,56.37,487,3160,,140425,https://en.wikipedia.org/wiki/List_of_the_busiest_airports_in_Russia,https://en.wikipedia.org/wiki/Bratsk_Airport,BTK,UIBB,,,
169,Q2159407,Chara Airport,UIAR,,,118.27,56.913333333333,671,,,9035,https://www.favt.ru/public/materials//4/3/a/9/7/43a97dc7930186c6dcb90c17e799a247.pdf,https://en.wikipedia.org/wiki/Chara_Airport,,UIAR,,,
170,Q2735084,Kadala Airport,UIAA,HTA,347088,113.305,52.026666666667,692,2799,,514623,http://favt.gov.ru/public/materials//1/7/9/0/5/17905110b885bcbd02a510303917bb16.xlsx,https://en.wikipedia.org/wiki/Chita-Kadala_International_Airport,HTA,UIAA,"455,350",,(2019)
171,Q2529510,Gorno-Altaysk Airport,UNBG,RGK,63214,85.833333333333,51.966666666667,294,,,311902,http://favt.gov.ru/public/materials//1/7/9/0/5/17905110b885bcbd02a510303917bb16.xlsx,https://en.wikipedia.org/wiki/Gorno-Altaysk_Airport,RGK,UNBG,,,
172,Q2607540,Igarka Airport,UOII,IAA,4975,86.621666666667,67.436666666667,25,2512,,278039,https://en.wikipedia.org/wiki/List_of_the_busiest_airports_in_Russia,https://en.wikipedia.org/wiki/Igarka_Airport,IAA,UOII,,,
173,Q1431564,Irkutsk International Airport,UIII,IKT,623736,104.355786,52.273107,511,3565,2433794,2433794,https://www.favt.ru/dejatelnost-ajeroporty-i-ajerodromy-osnovnie-proizvodstvennie-pokazateli-aeroportov-obyom-perevoz/,https://en.wikipedia.org/wiki/International_Airport_Irkutsk,IKT,UIII,"2,213,000",,(2018)
174,Q4208200,Kazachinskoe Airport,UITK,,,107.56861111111,56.277222222222,457,,,,,https://en.wikipedia.org/wiki/Kazachinskoye_Airport,,UITK,,,
175,Q240706,Kemerovo International Airport,UNEE,KEJ,558973,86.11,55.271666666667,263,3200,,564033,https://www.favt.ru/public/materials//4/3/a/9/7/43a97dc7930186c6dcb90c17e799a247.pdf,https://en.wikipedia.org/wiki/Kemerovo_International_Airport,KEJ,UNEE,,,
176,Q2637719,Khatanga Airport,UOHH,HTG,,102.48666666667,71.968333333333,27,2729,,34781,https://www.favt.ru/public/materials//7/3/1/0/c/7310ce947182b9a1da6b2f757d1f9329.xlsx,https://en.wikipedia.org/wiki/Khatanga_Airport,HTG,UOHH,,,
177,Q2000703,Kirensk Airport,UIKK,KCK,,108.06083333333,57.772777777778,256,,,29207,https://www.favt.ru/public/materials//4/3/a/9/7/43a97dc7930186c6dcb90c17e799a247.pdf,https://en.wikipedia.org/wiki/Kirensk_Airport,KCK,UIKK,,,
178,Q4512790,Krasnoyarsk Cheremshanka Airport,UNKM,,,92.54277778,56.17583333,287,,,47597,http://favt.gov.ru/public/materials//1/7/9/0/5/17905110b885bcbd02a510303917bb16.xlsx,https://en.wikipedia.org/wiki/Krasnoyarsk_Cheremshanka_Airport,,UNKM,,,
179,Q1431601,Krasnoyarsk International Airport,UNKL,KJA,1083865,92.493333333333,56.171666666667,287,3700,,2694817,https://www.favt.ru/public/materials//4/3/a/9/7/43a97dc7930186c6dcb90c17e799a247.pdf,https://en.wikipedia.org/wiki/Krasnoyarsk_International_Airport,KJA,UNKL,"2,587,734",,(2018)
180,Q16977113,Kurumkan Airport,UI69,,5465,110.296888,54.30989,,,,,,https://en.wikipedia.org/wiki/Kurumkan_Airport,none,UI69,,,
181,Q770594,Kyzyl Airport,UNKY,KYZ,116015,94.40515,51.676072222222,647,2700,,88806,http://favt.gov.ru/public/materials//1/7/9/0/5/17905110b885bcbd02a510303917bb16.xlsx,https://en.wikipedia.org/wiki/Kyzyl_Airport,KYZ,UNKY,,,
182,Q2448072,Mama Airport,UIKM,,,112.89,58.313333333333,201,,,8580,https://www.favt.ru/public/materials//4/3/a/9/7/43a97dc7930186c6dcb90c17e799a247.pdf,https://en.wikipedia.org/wiki/Mama_Airport,,UIKM,,,
183,Q1406531,Alykel Airport,UOOO,NSK,179554,87.3210325,69.310544166667,175,,,604977,https://www.favt.ru/public/materials//4/3/a/9/7/43a97dc7930186c6dcb90c17e799a247.pdf,https://en.wikipedia.org/wiki/Alykel_International_Airport,NSK,UOOO,,,
184,Q977477,Spichenkovo Airport,UNWW,NOZ,552105,86.878333333333,53.81,312,,,397730,https://en.wikipedia.org/wiki/List_of_the_busiest_airports_in_Russia,https://en.wikipedia.org/wiki/Spichenkovo_Airport,NOZ,UNWW,,,
185,Q1328849,Tolmachevo Airport,UNNT,OVB,1625631,82.650556,55.0125,111,3602,6747151,6747151,https://ru.wikipedia.org/wiki/%D0%A2%D0%BE%D0%BB%D0%BC%D0%B0%D1%87%D1%91%D0%B2%D0%BE_(%D0%B0%D1%8D%D1%80%D0%BE%D0%BF%D0%BE%D1%80%D1%82)#%D0%A1%D1%82%D0%B0%D1%82%D0%B8%D1%81%D1%82%D0%B8%D0%BA%D0%B0,https://en.wikipedia.org/wiki/Tolmachevo_Airport,OVB,UNNT,"4,634,166","30,770",(2020)
186,Q1432246,Omsk Tsentralny Airport,UNOO,OMS,1172070,73.308333333333,54.966666666667,925,2500,,1492032,https://en.wikipedia.org/wiki/List_of_the_busiest_airports_in_Russia,https://en.wikipedia.org/wiki/Omsk_Tsentralny_Airport,OMS,UNOO,"1,088,926",,(2018)
187,Q4367627,Podkamennaya Tunguska Airport,UNIP,TGP,,89.973333333333,61.59,65,,,10744,https://www.favt.ru/public/materials//4/3/a/9/7/43a97dc7930186c6dcb90c17e799a247.pdf,https://en.wikipedia.org/wiki/Podkamennaya_Tunguska_Airport,TGP,UNIP,,,
188,Q3606095,Strezhevoy Airport,UNSS,SWT,,77.66,60.71,50,,,41293,https://www.favt.ru/public/materials//4/3/a/9/7/43a97dc7930186c6dcb90c17e799a247.pdf,https://en.wikipedia.org/wiki/Strezhevoy_Airport,SWT,UNSS,,,
189,Q686923,Taksimo Airport,UIKG,,,114.93,56.361666666667,610,,,12474,https://www.favt.ru/public/materials//4/3/a/9/7/43a97dc7930186c6dcb90c17e799a247.pdf,https://en.wikipedia.org/wiki/Taksimo_Airport,,UIKG,,,
190,Q1322435,Bogashevo Airport,UNTT,TOF,572740,85.211666666667,56.383333333333,182,,,617717,https://en.wikipedia.org/wiki/List_of_the_busiest_airports_in_Russia,https://en.wikipedia.org/wiki/Bogashevo_Airport,TOF,UNTT,"628,932",,
191,Q4466451,Turukhansk Airport,UOTT,THX,,87.93,65.8,39,,,20969,https://www.favt.ru/public/materials//4/3/a/9/7/43a97dc7930186c6dcb90c17e799a247.pdf,https://en.wikipedia.org/wiki/Turukhansk_Airport,THX,UOTT,,,
192,Q2719346,Baikal International Airport,UIUU,UUD,439128,107.4375,51.8075,515,2997,,376774,https://en.wikipedia.org/wiki/List_of_the_busiest_airports_in_Russia,https://en.wikipedia.org/wiki/Baikal_International_Airport,UUD,UIUU,,,
193,Q4478462,Ust-Kut Airport,UITT,UKX,41689,105.73,56.856666666667,667,2000,,90026,http://www.uskairport.ru/docs/2018/Отчет.pdf,https://en.wikipedia.org/wiki/Ust-Kut_Airport,UKX,UITT,"90,026","2,309",(2018)
194,Q4818995,Vanavara Airport,UNIW,,,102.31,60.355,272,,,14753,https://www.favt.ru/public/materials//4/3/a/9/7/43a97dc7930186c6dcb90c17e799a247.pdf,https://en.wikipedia.org/wiki/Vanavara_Airport,,UNIW,,,
195,Q4176155,Erbogachen Airport,UIKE,ERG,,108.03,61.275,291,,,7865,https://www.favt.ru/public/materials//4/3/a/9/7/43a97dc7930186c6dcb90c17e799a247.pdf,https://en.wikipedia.org/wiki/Yerbogachen_Airport,ERG,UIKE,,,
196,Q1430805,Anapa Airport,URKA,AAQ,81447,37.347305555556,45.002083333333,53.0353044,2500,,2931057,http://favt.gov.ru/public/materials//1/7/9/0/5/17905110b885bcbd02a510303917bb16.xlsx,https://en.wikipedia.org/wiki/Anapa_Airport,AAQ,URKA,"1,487,382",,(2018)
197,Q2310593,Narimanovo Airport,URWA,ASF,524371,48.006277777778,46.283333333333,-20,,,864522,https://www.favt.ru/public/materials//4/3/a/9/7/43a97dc7930186c6dcb90c17e799a247.pdf,https://en.wikipedia.org/wiki/Narimanovo_Airport,ASF,URWA,,,
198,Q2276543,Elista Airport,URWI,ESL,103535,44.330833333333,46.373888888889,153,,,11691,https://www.favt.ru/public/materials//4/3/a/9/7/43a97dc7930186c6dcb90c17e799a247.pdf,https://en.wikipedia.org/wiki/Elista_Airport,ESL,URWI,,,
199,Q1997645,Gelendzhik Airport,URKG,GDZ,117546,38.00944444,44.5725,27,,,294865,https://en.wikipedia.org/wiki/List_of_the_busiest_airports_in_Russia,https://en.wikipedia.org/wiki/Gelendzhik_Airport,GDZ,URKG,February,,
200,Q1629051,Krasnodar International Airport,URKK,KRR,948827,39.170555555556,45.034722222222,36,3000,,5022243,https://ru.wikipedia.org/wiki/%D0%A1%D0%BF%D0%B8%D1%81%D0%BE%D0%BA_%D0%BD%D0%B0%D0%B8%D0%B1%D0%BE%D0%BB%D0%B5%D0%B5_%D0%B7%D0%B0%D0%B3%D1%80%D1%83%D0%B6%D0%B5%D0%BD%D0%BD%D1%8B%D1%85_%D0%BF%D0%B0%D1%81%D1%81%D0%B0%D0%B6%D0%B8%D1%80%D1%81%D0%BA%D0%B8%D1%85_%D0%B0%D1%8D%D1%80%D0%BE%D0%BF%D0%BE%D1%80%D1%82%D0%BE%D0%B2_%D0%BF%D0%BE%D1%81%D1%82%D1%81%D0%BE%D0%B2%D0%B5%D1%82%D1%81%D0%BA%D0%BE%D0%B3%D0%BE_%D0%BF%D1%80%D0%BE%D1%81%D1%82%D1%80%D0%B0%D0%BD%D1%81%D1%82%D0%B2%D0%B0,https://en.wikipedia.org/wiki/Krasnodar_International_Airport,KRR,URKK,"4,160,053",,(2018)
201,Q1432638,Rostov-on-Don Airport,URRR,RVI,1137704,39.818333333333,47.258333333333,78.9433554,2500,,2766000,https://ru.wikipedia.org/wiki/%D0%A1%D0%BF%D0%B8%D1%81%D0%BE%D0%BA_%D0%BD%D0%B0%D0%B8%D0%B1%D0%BE%D0%BB%D0%B5%D0%B5_%D0%B7%D0%B0%D0%B3%D1%80%D1%83%D0%B6%D0%B5%D0%BD%D0%BD%D1%8B%D1%85_%D0%BF%D0%B0%D1%81%D1%81%D0%B0%D0%B6%D0%B8%D1%80%D1%81%D0%BA%D0%B8%D1%85_%D0%B0%D1%8D%D1%80%D0%BE%D0%BF%D0%BE%D1%80%D1%82%D0%BE%D0%B2_%D0%BF%D0%BE%D1%81%D1%82%D1%81%D0%BE%D0%B2%D0%B5%D1%82%D1%81%D0%BA%D0%BE%D0%B3%D0%BE_%D0%BF%D1%80%D0%BE%D1%81%D1%82%D1%80%D0%B0%D0%BD%D1%81%D1%82%D0%B2%D0%B0,https://en.wikipedia.org/wiki/Rostov-on-Don_Airport,"ROV, RVI",URRR,"2,766,000",,(2017)
202,Q1138408,Sochi International Airport,URSS,AER,411524,39.956666666667,43.45,27.1272534,,,11076621,https://www.airlines-inform.ru/rankings/russian_airports_2008.html,https://en.wikipedia.org/wiki/Sochi_International_Airport,AER,URSS,"6,343,869",,(2018)
203,Q1433263,Volgograd International Airport,URWW,VOG,1004763,44.346666666667,48.781666666667,147,,,1440697,,https://en.wikipedia.org/wiki/Volgograd_International_Airport,VOG,URWW,"1,142,878",,(2018)
204,Q955079,Eisk Airport,URKE,EIK,83665,38.2145,46.6835,20,,,,,https://en.wikipedia.org/wiki/Yeysk_Airport,EIK,URKE,,,
205,Q19657268,Beloyarsk Airport,USHQ,EYK,19542,66.68305556,63.68305556,24,,,70879,https://www.favt.ru/public/materials//4/3/a/9/7/43a97dc7930186c6dcb90c17e799a247.pdf,https://en.wikipedia.org/wiki/Beloyarsk_Airport,EYK,USHQ,,,
206,Q1322423,Chelyabinsk Airport,USCC,CEK,1196680,61.512207,55.297886,226,3200,,1813638,,https://en.wikipedia.org/wiki/Chelyabinsk_Airport,CEK,USCC,"1,640,535",,(2018)
207,Q518910,Khanty-Mansiysk Airport,USHH,HMA,105995,69.086666666667,61.028333333333,43,2800,,389281,https://www.favt.ru/public/materials//4/3/a/9/7/43a97dc7930186c6dcb90c17e799a247.pdf,https://en.wikipedia.org/wiki/Khanty-Mansiysk_Airport,HMA,USHH,,,
208,Q2442630,Kogalym International Airport,USRK,KGP,61441,74.535,62.19,67,,,136052,https://favt.gov.ru/dejatelnost-ajeroporty-i-ajerodromy-osnovnie-proizvodstvennie-pokazateli-aeroportov-obyom-perevoz/,https://en.wikipedia.org/wiki/Kogalym_International_Airport,KGP,USRK,,,
209,Q2545156,Kurgan Airport,USUU,KRO,309285,65.415277777778,55.475,73,,,87691,https://www.e-disclosure.ru/portal/files.aspx?id=5078&type=2&attempt=1,https://en.wikipedia.org/wiki/Kurgan_Airport,KRO,USUU,"81,541",842,(2014)
210,Q2156249,Magnitogorsk International Airport,USCM,MQF,418241,58.756666666667,53.393333333333,436,,,193175,https://en.wikipedia.org/wiki/List_of_the_busiest_airports_in_Russia,https://en.wikipedia.org/wiki/Magnitogorsk_International_Airport,MQF,USCM,,,
211,Q1931168,Nadym Airport,USMM,NYM,44940,72.703333333333,65.48,15,,,186769,https://en.wikipedia.org/wiki/List_of_the_busiest_airports_in_Russia,https://en.wikipedia.org/wiki/Nadym_Airport,NYM,USMM,,,
212,Q2704076,Nizhnevartovsk Airport,USNN,NJC,278725,76.483333333333,60.95,54,,,694042,https://www.airlines-inform.ru/rankings/russian_airports_2008.html,https://en.wikipedia.org/wiki/Nizhnevartovsk_Airport,NJC,USNN,"652,129",,(2018)
213,Q936871,Novy Urengoy Airport,USMU,NUX,113254,76.521666666667,66.07,64,,,1031640,https://nux.aero/about/news/godovoy-passazhiropotok-novourengoyskogo-aeroporta-vpervye-p/,https://en.wikipedia.org/wiki/Novy_Urengoy_Airport,NUX,USMU,"972,668",,(2018)
214,Q1847867,Noyabrsk Airport,USRO,NOJ,106879,75.27,63.183333333333,136,,,229998,https://en.wikipedia.org/wiki/List_of_the_busiest_airports_in_Russia,https://en.wikipedia.org/wiki/Noyabrsk_Airport,NOJ,USRO,,,
215,Q2671168,Nyagan Airport,USHN,NYA,58335,65.615,62.11,110,,,18869,https://www.favt.ru/public/materials//4/3/a/9/7/43a97dc7930186c6dcb90c17e799a247.pdf,https://en.wikipedia.org/wiki/Nyagan_Airport,NYA,USHN,,,
216,Q2445706,Salekhard Airport,USDD,SLY,51188,66.586638888889,66.590138888889,65,,,415514,https://en.wikipedia.org/wiki/List_of_the_busiest_airports_in_Russia,https://en.wikipedia.org/wiki/Salekhard_Airport,SLY,USDD,,,
217,Q3544273,Sovetsky Airport,USHS,OVS,31138,63.605,61.325,107,,,58906,https://www.favt.ru/public/materials//4/3/a/9/7/43a97dc7930186c6dcb90c17e799a247.pdf,https://en.wikipedia.org/wiki/Sovetsky_Airport,OVS,USHS,,,
218,Q1432943,Surgut International Airport,USRR,SGC,395900,73.402222222222,61.343888888889,61,,,1843224,https://www.airlines-inform.ru/rankings/russian_airports_2008.html,https://en.wikipedia.org/wiki/Surgut_International_Airport,SGC,USRR,"1,758,310",,(2018)
219,Q2290825,Roshchino International Airport,USTR,TJM,744554,65.316666666667,57.168333333333,113,3000,,2242326,http://favt.gov.ru/public/materials//1/7/9/0/5/17905110b885bcbd02a510303917bb16.xlsx,https://en.wikipedia.org/wiki/Roshchino_International_Airport,TJM,USTR,"1,978,979",,(2018)
220,Q2233608,Uray Airport,USHU,URJ,40559,64.833333333333,60.116666666667,58,,,14089,https://www.favt.ru/public/materials//4/3/a/9/7/43a97dc7930186c6dcb90c17e799a247.pdf,https://en.wikipedia.org/wiki/Uray_Airport,URJ,USHU,,,
221,Q2095401,Yamburg Airport,USMQ,,,75.1,67.986666666667,33,,,64562,https://favt.gov.ru/dejatelnost-ajeroporty-i-ajerodromy-osnovnie-proizvodstvennie-pokazateli-aeroportov-obyom-perevoz/,https://en.wikipedia.org/wiki/Yamburg_Airport,,USMQ,,,
222,Q1334495,Koltsovo Airport,USSS,SVX,1468833,60.803611111111,56.741388888889,233,3026,,6103049,https://en.wikipedia.org/wiki/Koltsovo_International_Airport#Statistics,https://en.wikipedia.org/wiki/Koltsovo_International_Airport,SVX,USSS,"5,953,840",,(2018)
223,Q2459307,Bugulma Airport,UWKB,UUA,86085,52.801666666667,54.64,300,2000,,54009,http://favt.gov.ru/public/materials//1/7/9/0/5/17905110b885bcbd02a510303917bb16.xlsx,https://en.wikipedia.org/wiki/Bugulma_Airport,UUA,UWKB,,,
224,Q304719,Cheboksary Airport,UWKS,CSY,489498,47.347222222222,56.09,171,2512,,460261,https://www.favt.ru/public/materials//4/3/a/9/7/43a97dc7930186c6dcb90c17e799a247.pdf,https://en.wikipedia.org/wiki/Cheboksary_International_Airport,CSY,UWKS,,,
225,Q2629079,Izhevsk Airport,USII,IJK,646277,53.456666666667,56.833333333333,162,,,544751,https://en.wikipedia.org/wiki/List_of_the_busiest_airports_in_Russia,https://en.wikipedia.org/wiki/Izhevsk_Airport,IJK,USII,,,
226,Q47151,Kazan International Airport,UWKD,KZN,1243500,49.281666666667,55.606666666667,125.8826478,3724,3470742,4018000,,https://en.wikipedia.org/wiki/Kazan_International_Airport,KZN,UWKD,"3,141,776",,(2018)
227,Q2608493,Pobedilovo Airport,USKK,KVX,501468,49.348333333333,58.503333333333,146,,,336651,https://www.favt.ru/public/materials//4/3/a/9/7/43a97dc7930186c6dcb90c17e799a247.pdf,https://en.wikipedia.org/wiki/Pobedilovo_Airport,KVX,USKK,,,
228,Q2571517,Begishevo Airport,UWKE,NBC,237250,52.095,55.563333333333,196,2502,,777263,https://en.wikipedia.org/wiki/List_of_the_busiest_airports_in_Russia,https://en.wikipedia.org/wiki/Begishevo_Airport,NBC,UWKE,"777,263",,(2018)
229,Q1432178,Nizhny Novgorod International Airport,UWGG,GOJ,1252236,43.786666666667,56.23,78,2805,,1452301,,https://en.wikipedia.org/wiki/Strigino_International_Airport,GOJ,UWGG,"1,134,534",,(2018)
230,Q1834135,Orenburg Tsentralny Airport,UWOO,REN,564773,55.456744444444,51.795786111111,118,2500,,993574,https://en.wikipedia.org/wiki/List_of_the_busiest_airports_in_Russia,https://en.wikipedia.org/wiki/Orenburg_Tsentralny_Airport,REN,UWOO,"792,316",,(2018)
231,Q2719002,Orsk Airport,UWOR,OSW,229255,58.596666666667,51.071666666667,277,2911,,65680,https://www.favt.ru/public/materials//4/3/a/9/7/43a97dc7930186c6dcb90c17e799a247.pdf,https://en.wikipedia.org/wiki/Orsk_Airport,OSW,UWOR,,,
232,Q961973,Penza Airport,UWPP,PEZ,523726,45.016666666667,53.116666666667,187,,,216478,http://favt.gov.ru/public/materials//1/7/9/0/5/17905110b885bcbd02a510303917bb16.xlsx,https://en.wikipedia.org/wiki/Penza_Airport,PEZ,UWPP,"181,000[1]",,(2018)
233,Q1430981,Bolshoye Savino Airport,USPP,PEE,1048005,56.026666666667,57.916666666667,121.0058382,,,1519617,https://ru.wikipedia.org/wiki/%D0%A1%D0%BF%D0%B8%D1%81%D0%BE%D0%BA_%D0%BD%D0%B0%D0%B8%D0%B1%D0%BE%D0%BB%D0%B5%D0%B5_%D0%B7%D0%B0%D0%B3%D1%80%D1%83%D0%B6%D0%B5%D0%BD%D0%BD%D1%8B%D1%85_%D0%BF%D0%B0%D1%81%D1%81%D0%B0%D0%B6%D0%B8%D1%80%D1%81%D0%BA%D0%B8%D1%85_%D0%B0%D1%8D%D1%80%D0%BE%D0%BF%D0%BE%D1%80%D1%82%D0%BE%D0%B2_%D0%BF%D0%BE%D1%81%D1%82%D1%81%D0%BE%D0%B2%D0%B5%D1%82%D1%81%D0%BA%D0%BE%D0%B3%D0%BE_%D0%BF%D1%80%D0%BE%D1%81%D1%82%D1%80%D0%B0%D0%BD%D1%81%D1%82%D0%B2%D0%B0,https://en.wikipedia.org/wiki/Perm_International_Airport,PEE,USPP,"1,519,617",,(2018)
234,Q950834,Kurumoch International Airport,UWWW,KUF,1169719,50.155,53.501666666667,145.3898862,,,3056610,,https://en.wikipedia.org/wiki/Kurumoch_International_Airport,KUF,UWWW,"3,056,610",,(2018)
235,Q2281749,Saransk Airport,UWPS,SKX,318841,45.215,54.125,206,,,103718,https://www.favt.ru/public/materials//4/3/a/9/7/43a97dc7930186c6dcb90c17e799a247.pdf,https://en.wikipedia.org/wiki/Saransk_Airport,SKX,UWPS,,,
236,Q1279158,Saratov Tsentralny Airport,UWSS,RTW,845300,46.046666666667,51.565,152,,,481503,https://en.wikipedia.org/wiki/List_of_the_busiest_airports_in_Russia,https://en.wikipedia.org/wiki/Saratov_Tsentralny_Airport,RTW,UWSS,"433,385",,(2016)
237,Q650285,Ufa International Airport,UWUU,UFA,1115560,55.874166666667,54.5575,137,3761,,4089111,https://ru.wikipedia.org/wiki/%D0%A1%D0%BF%D0%B8%D1%81%D0%BE%D0%BA_%D0%BD%D0%B0%D0%B8%D0%B1%D0%BE%D0%BB%D0%B5%D0%B5_%D0%B7%D0%B0%D0%B3%D1%80%D1%83%D0%B6%D0%B5%D0%BD%D0%BD%D1%8B%D1%85_%D0%BF%D0%B0%D1%81%D1%81%D0%B0%D0%B6%D0%B8%D1%80%D1%81%D0%BA%D0%B8%D1%85_%D0%B0%D1%8D%D1%80%D0%BE%D0%BF%D0%BE%D1%80%D1%82%D0%BE%D0%B2_%D0%BF%D0%BE%D1%81%D1%82%D1%81%D0%BE%D0%B2%D0%B5%D1%82%D1%81%D0%BA%D0%BE%D0%B3%D0%BE_%D0%BF%D1%80%D0%BE%D1%81%D1%82%D1%80%D0%B0%D0%BD%D1%81%D1%82%D0%B2%D0%B0,https://en.wikipedia.org/wiki/Ufa_International_Airport,UFA,UWUU,"3,222,825",,(2018)
238,Q1989502,Ulyanovsk Baratayevka Airport,UWLL,ULV,624518,48.226666666667,54.268333333333,141,,,554758,https://favt.gov.ru/dejatelnost-ajeroporty-i-ajerodromy-osnovnie-proizvodstvennie-pokazateli-aeroportov-obyom-perevoz/,https://en.wikipedia.org/wiki/Ulyanovsk_Baratayevka_Airport,ULV,UWLL,,,
239,Q2545194,Ulyanovsk Vostochny Airport,UWLW,ULY,624518,48.802777777778,54.401111111111,77,,,235212,http://favt.gov.ru/public/materials//1/7/9/0/5/17905110b885bcbd02a510303917bb16.xlsx,https://en.wikipedia.org/wiki/Ulyanovsk_Vostochny_Airport,ULY,UWLW,,,
240,Q2574474,Yoshkar-Ola Airport,UWKJ,JOK,266675,47.895,56.705,106,,,22649,https://www.favt.ru/public/materials//4/3/a/9/7/43a97dc7930186c6dcb90c17e799a247.pdf,https://en.wikipedia.org/wiki/Yoshkar-Ola_Airport,JOK,UWKJ,,,
241,Q1708535,Chernivtsi International Airport,UKLN,CWC,265471,25.981111111111,48.258888888889,243,,76832,76832,http://airportchernivtsi.cv.ua/statistichne-sposterezhennya-aviaczijnih-perevezen-v-kp-mizhnarodnij-aeroport-chernivczi-za-2018-ta-2019-rr-mozhlive-koriguvannya/,https://en.wikipedia.org/wiki/Chernivtsi_International_Airport,CWC,UKLN,"73,100",,(2018)
242,Q1431225,Dnipro International Airport,UKDD,DNK,980948,35.093652777778,48.367633333333,147,,338888,660000,http://dnk.aero/uk/,https://en.wikipedia.org/wiki/Dnipro_International_Airport,DNK,UKDD,"276,954[1]",,(2017)
243,Q1431229,Donetsk International Airport,UKCC,DOK,929063,37.742,48.069,241,2484,,1110459,https://en.wikipedia.org/wiki/List_of_the_busiest_airports_in_the_former_USSR,https://en.wikipedia.org/wiki/Donetsk_International_Airport,DOK,UKCC,"346,700",,(2014)
244,Q1431569,Ivano-Frankivsk International Airport,UKLI,IFO,238196,24.686111111111,48.884166666667,280,,104700,116000,https://cfts.org.ua/infographics/passazhiropotok_aeroportov_ukrainy_2019,https://en.wikipedia.org/wiki/Ivano-Frankivsk_International_Airport,IFO,UKLI,"110,600",,(2017)
245,Q2492784,Kharkiv International Airport,UKHH,HRK,1433886,36.29,49.924722,155,,1340000,1340000,https://hrk.aero/2019-rik-stav-dlya-aeroportu-kharkiv-najjuspishnishim-za-vsi-chasi/,https://en.wikipedia.org/wiki/Kharkiv_International_Airport,HRK,UKHH,"1,340,800[1]",,(2019)
246,Q4497328,Kherson International Airport,UKOH,KHE,283649,32.50222222,46.66805556,45,,154000,154000,https://www.avianews.com/ukraine/2020/01/13/airports_ukraine_2019_results_statistics/,https://en.wikipedia.org/wiki/Kherson_International_Airport,KHE,UKOH,83,,(2021)
247,Q477677,Boryspil International Airport,UKBB,KBP,2952301,30.893333333333,50.344722222222,130.1498562,4000,15260281,15260281,https://cfts.org.ua/news/2020/01/13/aeroport_borispol_za_god_obsluzhil_na_21_bolshe_passazhirov_chem_v_2018_godu_56802,https://en.wikipedia.org/wiki/Boryspil_International_Airport,KBP,UKBB,"15,260,300",,(2019)
248,Q939543,Kyiv Zhuliany International Airport,UKKK,IEV,2952301,30.451666666667,50.401666666667,178.9179522,2310,2617900,2812300,https://en.wikipedia.org/wiki/List_of_the_busiest_airports_in_the_former_USSR,https://en.wikipedia.org/wiki/Kyiv_International_Airport_(Zhuliany),IEV[1],UKKK,"2,617,900[2]",,(2019)
249,Q111731,Kryvyi Rih International Airport,UKDR,KWG,603237,33.206944444444,48.043055555556,123.6,2500,21329,32504,https://cfts.org.ua/infographics/passazhiropotok_aeroportov_ukrainy_2019,https://en.wikipedia.org/wiki/Kryvyi_Rih_International_Airport,KWG,UKDR,"32,504",,(2017)
250,Q2233195,Luhansk International Airport,UKCW,VSG,417990,39.374,48.418,194,,,51100,https://uk.wikipedia.org/wiki/Пасажиропотік_аеропортів_України,https://en.wikipedia.org/wiki/Luhansk_International_Airport,VSG,UKCW,,,
251,Q282909,Lviv Danylo Halytskyi International Airport,UKLL,LWO,724314,23.956111111111,49.8125,326.4414426,3305,2217400,2217400,http://www.wing.com.ua/content/view/24287/37/,https://en.wikipedia.org/wiki/Lviv_Danylo_Halytskyi_International_Airport,LWO,UKLL,"1,834,051","17,444",(2021)
252,Q652315,Mariupol International Airport,UKCM,MPW,449498,37.456388888889,47.0725,76,,,,,https://en.wikipedia.org/wiki/Mariupol_International_Airport,MPW,UKCM,(closed),,
253,Q1432234,Odesa International Airport,UKOO,ODS,1015826,30.678055555556,46.426944444444,52,,1694022,1694022,https://uk.wikipedia.org/wiki/Пасажиропотік_аеропортів_України#2019,https://en.wikipedia.org/wiki/Odesa_International_Airport,ODS,UKOO,"1,328,326",,(2021)
254,Q7338967,Rivne International Airport,UKLR,RWN,245289,26.141666666667,50.607222222222,230,,11031,11031,https://cfts.org.ua/infographics/passazhiropotok_aeroportov_ukrainy_2019,https://en.wikipedia.org/wiki/Rivne_International_Airport,RWN,UKLR,"3,472",,(2017)
255,Q1432871,Simferopol International Airport,UKFF,SIP,340540,33.975277777778,45.052222222222,195,3701,5140000,6830000,https://en.wikipedia.org/wiki/List_of_the_busiest_airports_in_Russia,https://en.wikipedia.org/wiki/Simferopol_International_Airport,SIP,UKFF,"6,830,000",,(2021)
256,Q1077892,Uzhhorod International Airport,UKLU,UDJ,114897,22.263333333333,48.634166666667,117,2038,2782,14750,https://cfts.org.ua/infographics/passazhiropotok_aeroportov_ukrainy_2019,https://en.wikipedia.org/wiki/Uzhhorod_International_Airport,UDJ,UKLU,"2,782[2]",,(2019)
257,Q4111595,Havryshivka Vinnytsia International Airport,UKWW,VIN,369739,28.61388889,49.23972222,974,2500,40124,60873,https://www.avianews.com/ukraine/2020/01/13/airports_ukraine_2019_results_statistics/,https://en.wikipedia.org/wiki/Havryshivka_Vinnytsia_International_Airport,VIN,UKWW,"60,873",,(2018)
258,Q1432786,Zaporizhzhia International Airport,UKDE,OZH,710052,35.315833333333,47.866944444444,114,2502,434063,617518,https://www.avianews.com/ukraine/2020/01/13/airport_zaporozhie_2019_results/,https://en.wikipedia.org/wiki/Zaporizhzhia_International_Airport,OZH,UKDE,617,,(2021)
259,Q478620,Aalborg Airport,EKYT,AAL,113417,9.8491666666667,57.092777777778,3,2654,1446294,1585573,http://stat.trafikstyrelsen.dk/,https://en.wikipedia.org/wiki/Aalborg_Airport,AAL,EKYT,1.456.496[1],,(2015)
260,Q1341664,Aarhus Airport,EKAH,AAR,269022,10.619166666667,56.304166666667,24.9936492,2777,500365,654916,http://stat.trafikstyrelsen.dk/,https://en.wikipedia.org/wiki/Aarhus_Airport,AAR,EKAH,"500,365",,(2019)
261,Q598121,Billund Airport,EKBI,BLL,6194,9.1519444444444,55.740277777778,75.2857482,3100,3739267,3739267,https://www.bll.dk/da-dk/statistikker,https://en.wikipedia.org/wiki/Billund_Airport,BLL,EKBI,"3,739,267",,(2019)
262,Q835129,Bornholm Airport,EKRN,RNN,39632,14.759444444444,55.063333333333,16,2100,236428,276415,http://stat.trafikstyrelsen.dk/,https://en.wikipedia.org/wiki/Bornholm_Airport,RNN,EKRN,"236,428",,(2019)
263,Q206277,Copenhagen Airport,EKCH,CPH,644431,12.656111111111,55.618055555556,4.8768096,3600,30256703,30298428,https://www.cph.dk/48e00e/globalassets/8.-om-cph/6.-investor/trafikstatistik/2021/01/2012_traffic.xlsx,https://en.wikipedia.org/wiki/Copenhagen_Airport,CPH,EKCH,"30,256,703[1]","263,411[1]",(2019)
264,Q127148,Esbjerg Airport,EKEB,EBJ,115459,8.5533333333333,55.525833333333,30,2599,83895,199637,http://stat.trafikstyrelsen.dk/,https://en.wikipedia.org/wiki/Esbjerg_Airport,EBJ,EKEB,"76,214",,(2018)
265,Q127331,Midtjylland Airport,EKKA,KRP,,9.1247222222222,56.2975,51,3048,114039,311435,http://stat.trafikstyrelsen.dk/,https://en.wikipedia.org/wiki/Midtjyllands_Airport,KRP,EKKA,195.607,,
266,Q1431968,Læsø Airport,EKLS,BYR,1807,10.999722222222,57.276944444444,8,928,,,,https://en.wikipedia.org/wiki/L%C3%A6s%C3%B8_Airport,BYR,EKLS,,,
267,Q2896204,Hans Christian Andersen Airport,EKOD,ODE,176683,10.330833333333,55.476666666667,17,2000,,23183,,https://en.wikipedia.org/wiki/Hans_Christian_Andersen_Airport,ODE,EKOD,"23,183",,(2016)
268,Q1431775,Roskilde Airport,EKRK,RKE,644431,12.131388888889,55.585555555556,38,,17592,43166,https://www.cph.dk/48e00e/globalassets/8.-om-cph/6.-investor/trafikstatistik/2021/01/2012_traffic.xlsx,https://en.wikipedia.org/wiki/Roskilde_Airport,RKE,EKRK,,,
269,Q1432970,Sønderborg Airport,EKSB,SGD,27595,9.7917305555556,54.964444444444,7,,73821,74299,http://stat.trafikstyrelsen.dk/,https://en.wikipedia.org/wiki/S%C3%B8nderborg_Airport,SGD,EKSB,73.821,"11,746",(2019)
270,Q1431834,Kärdla Airport,EEKA,KDL,3230,22.830555555556,58.990555555556,5,1379,,,,https://en.wikipedia.org/wiki/K%C3%A4rdla_Airport,KDL,EEKA,"12,004","1,534",(2022)
271,Q892425,Kuressaare Airport,EEKE,URE,12933,22.509444444444,58.229722222222,4,,,,,https://en.wikipedia.org/wiki/Kuressaare_Airport,URE,EEKE,"38,749","2,197",(2022)
272,Q1432537,Pärnu Airport,EEPU,EPU,39605,24.472777777778,58.419166666667,14,2480,1009,7072,https://et.wikipedia.org/wiki/P%C3%A4rnu_lennujaam#Lennuliikluse_statistika,https://en.wikipedia.org/wiki/P%C3%A4rnu_Airport,EPU,EEPU,"2,887",791,(2022)
273,Q630524,Tallinn Airport,EETN,TLL,438341,24.799166666667,59.416388888889,40,3480,3267909,3267909,https://www.tallinn-airport.ee/wordpress/wp-content/uploads/2020/01/TLL-traffic-2019-short.pdf,https://en.wikipedia.org/wiki/Tallinn_Airport,TLL,EETN,"24,841","22,962",(2021)
274,Q279167,Tartu Airport,EETU,TAY,91407,26.686944444444,58.3075,67,1379,,,,https://en.wikipedia.org/wiki/Tartu_Airport,TAY,EETU,"8,653","4,805",(2022)
275,Q371471,Vágar Airport,EKVG,FAE,3063,-7.2772,62.0636,85.344168,1799,424281,424281,http://stat.trafikstyrelsen.dk/,https://en.wikipedia.org/wiki/V%C3%A1gar_Airport,FAE,EKVG,"406,453","5,521",(2022)
276,Q662933,Enontekiö Airport,EFET,ENF,1861,23.4275,68.364444444444,306.6294036,2001,27979,27979,https://www.finavia.fi/sites/default/files/documents/Passengers%20by%20Airport%201998-2019-fi-fi.pdf,https://en.wikipedia.org/wiki/Enonteki%C3%B6_Airport,ENF,EFET,"25,537",,(2017)
277,Q215327,Helsinki Airport,EFHK,HEL,664921,24.963333333333,60.317222222222,54.864108,3500,21861082,21861082,https://www.finavia.fi/sites/default/files/documents/Passengers%20by%20Airport%201998-2019-fi-fi.pdf,https://en.wikipedia.org/wiki/Helsinki_Airport,HEL,EFHK,"12,882,861",,(2022)
278,Q850269,Ivalo Airport,EFIV,IVL,6804,27.413888888889,68.610833333333,146.9138892,2499,239753,243443,https://www.finavia.fi/sites/default/files/documents/Passengers%20by%20Airport%201998-2019-fi-fi.pdf,https://en.wikipedia.org/wiki/Ivalo_Airport,IVL,EFIV,"114,922[1]",,(2020)
279,Q370924,Joensuu Airport,EFJO,JOE,75514,29.624444444444,62.658888888889,121.6154394,2500,126613,185943,https://www.finavia.fi/sites/default/files/documents/Passengers%20by%20Airport%201998-2019-fi-fi.pdf,https://en.wikipedia.org/wiki/Joensuu_Airport,JOE,EFJO,"133,726",,(2015)
280,Q143224,Jyväskylä Airport,EFJY,JYV,141441,25.672777777778,62.400833333333,140.208276,2601,66572,235229,https://www.finavia.fi/sites/default/files/documents/Passengers%20by%20Airport%201998-2019-fi-fi.pdf,https://en.wikipedia.org/wiki/Jyv%C3%A4skyl%C3%A4_Airport,JYV,EFJY,"67,966",,(2017)
281,Q739238,Kajaani Airport,EFKI,KAJ,37622,27.6875,64.284166666667,147.5234904,2499,87307,128533,https://www.finavia.fi/sites/default/files/documents/Passengers%20by%20Airport%201998-2019-fi-fi.pdf,https://en.wikipedia.org/wiki/Kajaani_Airport,KAJ,EFKI,"88,815",,(2018)
282,Q1413172,Kemi-Tornio Airport,EFKE,KEM,21928,24.584722222222,65.779166666667,18.8976372,2503,63579,124643,https://www.finavia.fi/sites/default/files/documents/Passengers%20by%20Airport%201998-2019-fi-fi.pdf,https://en.wikipedia.org/wiki/Kemi-Tornio_Airport,KEM,EFKE,"66,800[1]",,(2018)
283,Q1347310,Kittilä Airport,EFKT,KTT,6421,24.848055555556,67.698611111111,196.596387,2500,363161,363161,https://www.finavia.fi/sites/default/files/documents/Passengers%20by%20Airport%201998-2019-fi-fi.pdf,https://en.wikipedia.org/wiki/Kittil%C3%A4_Airport,KTT,EFKT,"206,251",,(2020)
284,Q196087,Kokkola-Jakobstad Airport,EFKK,KOK,47570,23.139166666667,63.720277777778,25.908051,2500,56113,131895,https://www.finavia.fi/sites/default/files/documents/Passengers%20by%20Airport%201998-2019-fi-fi.pdf,https://en.wikipedia.org/wiki/Kokkola-Pietarsaari_Airport,KOK,EFKK,"68,636",,(2018)
285,Q973283,Kuopio Airport,EFKU,KUO,121557,27.794444444444,63.008611111111,98.7553944,2800,243529,332202,https://www.finavia.fi/sites/default/files/documents/Passengers%20by%20Airport%201998-2019-fi-fi.pdf,https://en.wikipedia.org/wiki/Kuopio_Airport,KUO,EFKU,"235,411[1]",,(2017)
286,Q530071,Kuusamo Airport,EFKS,KAO,15386,29.231944444444,65.990277777778,264.5669208,2500,114003,117104,https://www.finavia.fi/sites/default/files/documents/Passengers%20by%20Airport%201998-2019-fi-fi.pdf,https://en.wikipedia.org/wiki/Kuusamo_Airport,KAO,EFKS,"87,752[1]",,(2017)
287,Q254039,Lappeenranta Airport,EFLP,LPP,72875,28.148611111111,61.045833333333,106.3754094,2500,,35792,https://ec.europa.eu/eurostat/web/products-datasets/-/avia_tf_apal,https://en.wikipedia.org/wiki/Lappeenranta_Airport,LPP,EFLP,"98,300",,(2013)
288,Q1031590,Mariehamn Airport,EFMA,MHQ,11461,19.907834,60.124852,5.4864108,1903,51597,118324,https://www.finavia.fi/sites/default/files/documents/Passengers%20by%20Airport%201998-2019-fi-fi.pdf,https://en.wikipedia.org/wiki/Mariehamn_Airport,MHQ,EFMA,23.962,,(2020)
289,Q1131604,Oulu Airport,EFOU,OUL,200526,25.355555555556,64.929166666667,14.6304288,2501,1057355,1105333,https://www.finavia.fi/sites/default/files/documents/Passengers%20by%20Airport%201998-2019-fi-fi.pdf,https://en.wikipedia.org/wiki/Oulu_Airport,OUL,EFOU,"312,892",,(2020)
290,Q1432445,Pori Airport,EFPO,POR,85363,21.797777777778,61.461388888889,13.716027,2351,14415,90618,https://www.finavia.fi/sites/default/files/documents/Passengers%20by%20Airport%201998-2019-fi-fi.pdf,https://en.wikipedia.org/wiki/Pori_Airport,POR,EFPO,"17,625",,(2018)
291,Q1323139,Rovaniemi Airport,EFRO,RVN,62420,25.830833333333,66.561666666667,195.9867858,3002,661124,661124,https://www.finavia.fi/sites/default/files/documents/Passengers%20by%20Airport%201998-2019-fi-fi.pdf,https://en.wikipedia.org/wiki/Rovaniemi_Airport,RVN,EFRO,"268,122",,(2020)
292,Q954725,Savonlinna Airport,EFSA,SVL,35523,28.945,61.942777777778,95.0977872,2300,10495,58258,https://www.finavia.fi/sites/default/files/documents/Passengers%20by%20Airport%201998-2019-fi-fi.pdf,https://en.wikipedia.org/wiki/Savonlinna_Airport,SVL,EFSA,"15,899",,(2010)
293,Q1126306,Tampere-Pirkkala Airport,EFTP,TMP,225118,23.587777777778,61.415277777778,119.1770346,2700,222390,709356,https://www.finavia.fi/sites/default/files/documents/Passengers%20by%20Airport%201998-2019-fi-fi.pdf,https://en.wikipedia.org/wiki/Tampere%E2%80%93Pirkkala_Airport,TMP,EFTP,"8,391[1]",,(2021)
294,Q1130231,Turku Airport,EFTU,TKU,187604,22.261666666667,60.514722222222,49.3776972,2500,452927,454948,https://www.finavia.fi/sites/default/files/documents/Passengers%20by%20Airport%201998-2019-fi-fi.pdf,https://en.wikipedia.org/wiki/Turku_Airport,TKU,EFTU,"112,585",,(2020)
295,Q1322467,Vaasa Airport,EFVA,VAA,67619,21.764166666667,63.045277777778,6.4008126,2500,303911,374139,https://www.finavia.fi/sites/default/files/documents/Passengers%20by%20Airport%201998-2019-fi-fi.pdf,https://en.wikipedia.org/wiki/Vaasa_Airport,VAA,EFVA,"19,231[1]",,(2021)
296,Q1430749,Akureyri Airport,BIAR,AEY,18925,-18.072702777778,65.659994444444,1.8288036,1940,184262,221759,https://px.hagstofa.is/pxen/pxweb/en/Umhverfi/Umhverfi__5_samgongur__2_flugogflugvellir/SAM04201.px,https://en.wikipedia.org/wiki/Akureyri_Airport,AEY,BIAR,"202,252","15,493",
297,Q597331,Bíldudalur Airport,BIBD,BIU,225,-23.546111111111,65.641388888889,7.9248156,,2983,4326,https://px.hagstofa.is/pxen/pxweb/en/Umhverfi/Umhverfi__5_samgongur__2_flugogflugvellir/SAM04201.px,https://en.wikipedia.org/wiki/B%C3%ADldudalur_Airport,BIU,BIBD,,,
298,Q974363,Egilsstaðir Airport,BIEG,EGS,2332,-14.401388888889,65.283333333333,23.1648456,,83954,157643,https://px.hagstofa.is/pxen/pxweb/en/Umhverfi/Umhverfi__5_samgongur__2_flugogflugvellir/SAM04201.px,https://en.wikipedia.org/wiki/Egilssta%C3%B0ir_Airport,EGS,BIEG,"83,954[1]",,(2019)
299,Q3275842,Gjögur Airport,BIGJ,GJR,,-21.329622222222,65.993308333333,30,,116,397,https://px.hagstofa.is/pxen/pxweb/en/Umhverfi/Umhverfi__5_samgongur__2_flugogflugvellir/SAM04201.px,https://en.wikipedia.org/wiki/Gj%C3%B6gur_Airport,GJR,BIGJ,,,
300,Q2875830,Grímsey Airport,BIGR,GRY,61,-18.018611111111,66.546666666667,24.6888486,,2133,4671,https://px.hagstofa.is/pxen/pxweb/en/Umhverfi/Umhverfi__5_samgongur__2_flugogflugvellir/SAM04201.px,https://en.wikipedia.org/wiki/Gr%C3%ADmsey_Airport,GRY,BIGR,"3,436",,(2016[1])
301,Q2875833,Hornafjörður Airport,BIHN,HFN,2389,-15.227222222222,64.295555555556,7.3152144,,10005,11342,https://px.hagstofa.is/pxen/pxweb/en/Umhverfi/Umhverfi__5_samgongur__2_flugogflugvellir/SAM04201.px,https://en.wikipedia.org/wiki/Hornafj%C3%B6r%C3%B0ur_Airport,HFN,BIHN,"11,183",,(2016[1])
302,Q2875836,Húsavík Airport,BIHU,HZK,2307,-17.425833333333,65.952222222222,14.6304288,,11633,20394,https://px.hagstofa.is/pxen/pxweb/en/Umhverfi/Umhverfi__5_samgongur__2_flugogflugvellir/SAM04201.px,https://en.wikipedia.org/wiki/H%C3%BAsav%C3%ADk_Airport,HZK,BIHU,"20,394",,(2016[1])
303,Q1433313,Ísafjörður Airport,BIIS,IFJ,2620,-23.135277777778,66.058055555556,2.4384048,,32332,51791,https://px.hagstofa.is/pxen/pxweb/en/Umhverfi/Umhverfi__5_samgongur__2_flugogflugvellir/SAM04201.px,https://en.wikipedia.org/wiki/%C3%8Dsafj%C3%B6r%C3%B0ur_Airport,IFJ,BIIS,"33,076",,(2016[1])
304,Q843204,Reykjavík Airport,BIRK,RKV,135688,-21.940555555556,64.13,13.716027,,350858,471372,https://px.hagstofa.is/pxen/pxweb/en/Umhverfi/Umhverfi__5_samgongur__2_flugogflugvellir/SAM04201.px,https://en.wikipedia.org/wiki/Reykjav%C3%ADk_Airport,RKV,BIRK,"400,044","64,190",
305,Q139921,Keflavík Airport,BIKF,KEF,135688,-22.605555555556,63.985,52.1209026,3065,7247820,9804388,https://www.isavia.is/media/1/flugtolur-2019-final-enska.pdf,https://en.wikipedia.org/wiki/Keflav%C3%ADk_International_Airport,KEF,BIKF,"6,126,421","73,623",(2022)
306,Q3480343,Sauðárkrókur Airport,BIKR,SAK,2574,-19.572777777778,65.731666666667,2.4384048,,33,8392,https://px.hagstofa.is/pxen/pxweb/en/Umhverfi/Umhverfi__5_samgongur__2_flugogflugvellir/SAM04201.px,https://en.wikipedia.org/wiki/Sau%C3%B0%C3%A1rkr%C3%B3kur_Airport,SAK,BIKR,,,
307,Q2235522,Vestmannaeyjar Airport,BIVM,VEY,4292,-20.279166666667,63.425,99.3649956,,11690,85950,https://px.hagstofa.is/pxen/pxweb/en/Umhverfi/Umhverfi__5_samgongur__2_flugogflugvellir/SAM04201.px,https://en.wikipedia.org/wiki/Vestmannaeyjar_Airport,VEY,BIVM,"19,107",,(2016[1])
308,Q2875989,Vopnafjörður Airport,BIVO,VPN,,-14.850555555556,65.720555555556,5.1816102,,1042,2099,https://px.hagstofa.is/pxen/pxweb/en/Umhverfi/Umhverfi__5_samgongur__2_flugogflugvellir/SAM04201.px,https://en.wikipedia.org/wiki/Vopnafj%C3%B6r%C3%B0ur_Airport,VPN,BIVO,,,
309,Q2876005,Þórshöfn Airport,BITN,THO,352,-15.335555555556,66.218333333333,19.5072384,,835,1079,https://px.hagstofa.is/pxen/pxweb/en/Umhverfi/Umhverfi__5_samgongur__2_flugogflugvellir/SAM04201.px,https://en.wikipedia.org/wiki/%C3%9E%C3%B3rsh%C3%B6fn_Airport,THO,BITN,,,
310,Q505421,Riga International Airport,EVRA,RIX,605802,23.970833333333,56.920833333333,10.9728216,3200,7798394,7798394,https://www.riga-airport.com/uploads/1_RIX_Statistics%202020_Jan.pdf,https://en.wikipedia.org/wiki/Riga_International_Airport,RIX,EVRA,"5,380,779","54,818",(2022)
311,Q847695,Kaunas Airport,EYKA,KUN,305120,24.084722222222,54.963888888889,78.0289536,,1160672,1186081,https://www.ltou.lt/uploads/documents/files/apie-oro-uostus/Aviacininkai/Statistika/KUN%202019%20statistics.pdf,https://en.wikipedia.org/wiki/Kaunas_Airport,KUN,EYKA,"1,160,591","9,888",(2019)
312,Q1332588,Palanga International Airport,EYPA,PLQ,18132,21.093888888889,55.973333333333,10.0584198,,338309,338309,https://www.ltou.lt/uploads/documents/files/apie-oro-uostus/Aviacininkai/Statistika/PLQ%202019%20statistics.pdf,https://en.wikipedia.org/wiki/Palanga_International_Airport,PLQ,EYPA,"338,309","5,167",(2019)
313,Q847711,Vilnius Airport,EYVI,VNO,581475,25.287777777778,54.636944444444,196.9011876,,5004922,5004922,https://en.wikipedia.org/wiki/List_of_the_busiest_airports_in_the_former_USSR,https://en.wikipedia.org/wiki/Vilnius_Airport,VNO,EYVI,"5,004,921","47,440",(2019)
314,Q175897,"Ålesund Airport, Vigra",ENAL,AES,67114,6.1197222222222,62.5625,21,2314,1147666,1147666,,"https://en.wikipedia.org/wiki/%C3%85lesund_Airport,_Vigra",AES,ENAL,"1,077,209","16,057",(2013)
315,Q1430778,Alta Airport,ENAT,ALF,21144,23.371667,69.976111111111,2.7432054,2253,373217,416272,https://avinor.no/globalassets/_konsern/om-oss/statistikk/en/2019/december-2019.xlsx,https://en.wikipedia.org/wiki/Alta_Airport,ALF,ENAT,"368,393","11,707",(2014)
316,Q2900393,Andøya Airport,ENAN,ANX,2615,16.144166666667,69.2925,13,3006,55277,69039,https://avinor.no/globalassets/_konsern/om-oss/statistikk/en/2019/december-2019.xlsx,https://en.wikipedia.org/wiki/And%C3%B8ya_Airport,ANX,ENAN,"48,625","3,208",(2014)
317,Q2088518,Bardufoss Airport,ENDU,BDU,6599,18.540277777778,69.05619,77,2995,246420,246420,https://avinor.no/contentassets/19f04fa7e7694e61b8ddd03c7b593aa4/passasjerer-2019.xlsx,https://en.wikipedia.org/wiki/Bardufoss_Airport,BDU,ENDU,"218,451","5,905",(2014)
318,Q2265643,Båtsfjord Airport,ENBS,BJF,2165,29.69457,70.60086,149.352294,1000,26476,41602,https://avinor.no/contentassets/19f04fa7e7694e61b8ddd03c7b593aa4/passasjerer-2019.xlsx,https://en.wikipedia.org/wiki/B%C3%A5tsfjord_Airport,BJF,ENBS,"14,485","2,551",(2016)
319,Q619980,Bergen Airport,ENBR,BGO,267117,5.2180611111111,60.293611111111,50.5968996,2990,6505827,6505827,https://avinor.no/globalassets/_konsern/om-oss/statistikk/en/2019/december-2019.xlsx,"https://en.wikipedia.org/wiki/Bergen_Airport,_Flesland",BGO,ENBR,"3,273,709",,(2021)
320,Q619876,Berlevåg Airport,ENBV,BVG,906,29.034166666667,70.871388888889,13,1029,14045,22752,https://avinor.no/globalassets/_konsern/om-oss/statistikk/en/2019/december-2019.xlsx,https://en.wikipedia.org/wiki/Berlev%C3%A5g_Airport,BVG,ENBV,"5,921","1,804",(2014)
321,Q39164,Bodø Airport,ENBO,BOO,41720,14.365277777778,67.27121,13.1064258,2794,1872649,1918298,https://avinor.no/contentassets/19f04fa7e7694e61b8ddd03c7b593aa4/passasjerer-2019.xlsx,https://en.wikipedia.org/wiki/Bod%C3%B8_Airport,BOO,ENBO,"1,824,601","41,860",(2018)
322,Q1431005,"Brønnøysund Airport, Brønnøy",ENBN,BNN,5050,12.2175,65.461111111111,8,1438,131208,172881,https://avinor.no/globalassets/_konsern/om-oss/statistikk/en/2019/december-2019.xlsx,https://en.wikipedia.org/wiki/Br%C3%B8nn%C3%B8ysund_Airport,BNN,ENBN,"117,471","11,494",(2014)
323,Q1922577,"Fagernes Airport, Leirin",ENFG,VDB,1921,9.2880555555556,61.015555555556,822,1989,,17722,https://avinor.no/globalassets/_konsern/om-oss/statistikk/no/2002/passasjerer-2002.xls,"https://en.wikipedia.org/wiki/Fagernes_Airport,_Leirin",VDB,ENFG,"1,818[1]",114,(2017)
324,Q2899363,Florø Airport,ENFL,FRO,8925,5.0247222222222,61.583611111111,11,1263,155382,206713,https://avinor.no/globalassets/_konsern/om-oss/statistikk/en/2019/december-2019.xlsx,https://en.wikipedia.org/wiki/Flor%C3%B8_Airport,FRO,ENFL,"200,356","11,654",(2014)
325,Q2673196,Førde Airport,ENBL,FDE,12900,5.7569444444444,61.391111111111,319,1110,83306,90049,https://avinor.no/globalassets/_konsern/om-oss/statistikk/en/2019/december-2019.xlsx,https://en.wikipedia.org/wiki/F%C3%B8rde_Airport,FDE,ENBL,"82,356","8,109",(2014)
326,Q1881702,Hammerfest Airport,ENHF,HFT,11274,23.668611111111,70.679722222222,80,933,148787,194287,https://avinor.no/globalassets/_konsern/om-oss/statistikk/en/2019/december-2019.xlsx,https://en.wikipedia.org/wiki/Hammerfest_Airport,HFT,ENHF,"145,396","13,822",(2014)
327,Q257433,Hasvik Airport,ENHK,HAA,964,22.139722222222,70.486666666667,7,1039,26584,28393,https://avinor.no/globalassets/_konsern/om-oss/statistikk/en/2019/december-2019.xlsx,https://en.wikipedia.org/wiki/Hasvik_Airport,HAA,ENHK,"7,629","1,272",(2014)
328,Q1431464,"Haugesund Airport, Karmøy",ENHD,HAU,45040,5.2125,59.343333333333,23.1648456,,623130,701110,https://avinor.no/contentassets/19f04fa7e7694e61b8ddd03c7b593aa4/passasjerer-2019.xlsx,https://en.wikipedia.org/wiki/Haugesund_Airport,HAU,ENHD,"694,005","10,265",(2014)
329,Q1431513,"Honningsvåg Airport, Valan",ENHV,HVG,2465,25.983611111111,71.009722222222,12.8016252,,26158,37084,https://avinor.no/globalassets/_konsern/om-oss/statistikk/en/2019/december-2019.xlsx,https://en.wikipedia.org/wiki/Honningsv%C3%A5g_Airport,HVG,ENHV,"13,487","2,274",(2014)
330,Q1431737,"Kirkenes Airport, Høybuktmoen",ENKR,KKN,3531,29.887777777778,69.725,85.9537692,2115,316268,318194,https://avinor.no/globalassets/_konsern/om-oss/statistikk/en/2019/december-2019.xlsx,https://en.wikipedia.org/wiki/Kirkenes_Airport,KKN,ENKR,"297,149","8,643",(2013)
331,Q1431790,"Kristiansand Airport, Kjevik",ENCN,KRS,113737,8.085,58.203888888889,17,,1064387,1072025,https://avinor.no/contentassets/19f04fa7e7694e61b8ddd03c7b593aa4/passasjerer-2019.xlsx,https://en.wikipedia.org/wiki/Kristiansand_Airport,KRS,ENCN,"1,061,130","19,290",(2018)
332,Q762039,"Kristiansund Airport, Kvernberget",ENKB,KSU,24013,7.8261111111111,63.111944444444,62.1793224,2390,325594,395711,https://avinor.no/globalassets/_konsern/om-oss/statistikk/en/2019/december-2019.xlsx,"https://en.wikipedia.org/wiki/Kristiansund_Airport,_Kvernberget",KSU,ENKB,"314,084","10,441",(2018)
333,Q2763148,"Lakselv Airport, Banak",ENNA,LKL,2268,24.973888888889,70.066666666667,7.620015,2788,58763,75821,https://avinor.no/globalassets/_konsern/om-oss/statistikk/en/2019/december-2019.xlsx,https://en.wikipedia.org/wiki/Lakselv_Airport,LKL,ENNA,"71,763","3,699",(2012)
334,Q2673185,Leknes Airport,ENLK,LKN,3620,13.616666666667,68.154166666667,24,1071,131105,136746,https://avinor.no/globalassets/_konsern/om-oss/statistikk/en/2019/december-2019.xlsx,https://en.wikipedia.org/wiki/Leknes_Airport,LKN,ENLK,"101,757","5,839",(2014)
335,Q59633,Svalbard Airport,ENSB,LYR,2417,15.465555555556,78.246111111111,28.6512564,2480,185449,185449,https://avinor.no/globalassets/_konsern/om-oss/statistikk/en/2019/december-2019.xlsx,https://en.wikipedia.org/wiki/Svalbard_Airport,LYR,ENSB,"154,261","6,944",(2014)
336,Q651288,Mehamn Airport,ENMH,MEH,1057,27.826666666667,71.029722222222,12,970,23261,26154,https://avinor.no/globalassets/_konsern/om-oss/statistikk/en/2019/december-2019.xlsx,https://en.wikipedia.org/wiki/Mehamn_Airport,MEH,ENMH,"14,392","2,789",(2012)
337,Q26504,"Mo i Rana Airport, Røssvoll",ENRA,MQN,18899,14.301666666667,66.363888888889,70,872,106316,145009,https://avinor.no/contentassets/19f04fa7e7694e61b8ddd03c7b593aa4/passasjerer-2019.xlsx,"https://en.wikipedia.org/wiki/Mo_i_Rana_Airport,_R%C3%B8ssvoll",MQN,ENRA,"104,474","7,374",(2014)
338,Q1618505,Molde Airport,ENML,MOL,32002,7.2625,62.744722222222,3.048006,,431668,519678,https://avinor.no/globalassets/_konsern/om-oss/statistikk/en/2019/december-2019.xlsx,https://en.wikipedia.org/wiki/Molde_Airport,MOL,ENML,"481,406","9,412",(2014)
339,Q3503973,Mosjøen Airport,ENMS,MJF,9854,13.215277777778,65.783997222222,73,1020,69055,110970,https://avinor.no/contentassets/19f04fa7e7694e61b8ddd03c7b593aa4/passasjerer-2019.xlsx,https://en.wikipedia.org/wiki/Mosj%C3%B8en_Airport,MJF,ENMS,"61,480","6,058",(2014)
340,Q429446,Oslo Rygge,ENRY,RYG,50290,10.785555555556,59.378888888889,53,2442,,1890889,https://avinor.no/globalassets/_konsern/om-oss/statistikk/no/2016/passasjerer-2016.xlsx,"https://en.wikipedia.org/wiki/Moss_Airport,_Rygge",RYG,ENRY,"1,304,379","22,056",(2016)
341,Q3499438,Namsos Airport,ENNM,OSY,15001,11.6,64.472222222222,2,937,43974,46118,https://avinor.no/globalassets/_konsern/om-oss/statistikk/en/2019/december-2019.xlsx,https://en.wikipedia.org/wiki/Namsos_Airport,OSY,ENNM,"29,091","3,364",(2014)
342,Q26514,"Narvik Airport, Framnes",ENNK,NVK,14148,17.386667,68.436945,29,,,46745,https://avinor.no/globalassets/_konsern/om-oss/statistikk/no/2010/passasjerer-2010.xls,"https://en.wikipedia.org/wiki/Narvik_Airport,_Framnes",NVK,ENNK,"27,142","2,586",(2014)
343,Q1431455,Harstad/Narvik Airport,ENEV,EVE,24804,16.678333333333,68.4913,26,2808,767812,794106,https://avinor.no/globalassets/_konsern/om-oss/statistikk/en/2019/december-2019.xlsx,"https://en.wikipedia.org/wiki/Harstad/Narvik_Airport,_Evenes",EVE,ENEV,"762,747","11,942",(2018)
344,Q3498154,Notodden Airport,ENNO,NTB,13029,9.2122222222222,59.565555555556,19,1721,,5975,https://avinor.no/globalassets/_konsern/om-oss/statistikk/no/2001/passasjerer-2001.xls,https://en.wikipedia.org/wiki/Notodden_Airport,NTB,ENNO,"3,423","5,078",(2011)
345,Q1927160,"Ny-Ålesund Airport, Hamnerabben",ENAS,,35,11.874722222222,78.927777777778,40,808,,,,"https://en.wikipedia.org/wiki/Ny-%C3%85lesund_Airport,_Hamnerabben",QEN,ENAS,,,
346,Q2096315,Ørland Airport,ENOL,OLA,10371,9.6038888888889,63.699166666667,9,2714,,22064,http://appsso.eurostat.ec.europa.eu/nui/setupDownloads.do,https://en.wikipedia.org/wiki/%C3%98rland_Airport,OLA,ENOL,"5,546","1,462",(2014)
347,Q1618487,Ørsta-Volda Airport,ENOV,HOV,7390,6.0758333333333,62.18,74,1071,109060,124562,https://avinor.no/contentassets/19f04fa7e7694e61b8ddd03c7b593aa4/passasjerer-2019.xlsx,https://en.wikipedia.org/wiki/%C3%98rsta%E2%80%93Volda_Airport,HOV,ENOV,"121,021","6,294",(2014)
348,Q210559,Oslo Airport,ENGM,OSL,709037,11.10036,60.202777777778,208,3600,28592619,28592619,https://avinor.no/globalassets/_konsern/om-oss/statistikk/en/2019/december-2019.xlsx,"https://en.wikipedia.org/wiki/Oslo_Airport,_Gardermoen",OSL,ENGM,"9,021,729","125,428",(2020)
349,Q3498160,Røros Airport,ENRO,RRS,5572,11.345,62.578888888889,626,1720,26256,27861,https://avinor.no/contentassets/19f04fa7e7694e61b8ddd03c7b593aa4/passasjerer-2019.xlsx,https://en.wikipedia.org/wiki/R%C3%B8ros_Airport,RRS,ENRO,"21,575","2,768",(2014)
350,Q2673189,Rørvik Airport,ENRM,RVK,3204,11.146111111111,64.838333333333,45,952,42553,50260,https://avinor.no/globalassets/_konsern/om-oss/statistikk/en/2019/december-2019.xlsx,https://en.wikipedia.org/wiki/R%C3%B8rvik_Airport,RVK,ENRM,"34,168","3,213",(2015)
351,Q3498144,Røst Airport,ENRS,RET,354,12.103333333333,67.527777777778,3.048006,799,14598,18978,https://avinor.no/globalassets/_konsern/om-oss/statistikk/en/2019/december-2019.xlsx,https://en.wikipedia.org/wiki/R%C3%B8st_Airport,RET,ENRS,"9,889","1,343",(2014)
352,Q1703540,Sandane Airport,ENSD,SDN,2447,6.1058333333333,61.83,60,970,41353,51913,https://avinor.no/globalassets/_konsern/om-oss/statistikk/en/2019/december-2019.xlsx,https://en.wikipedia.org/wiki/Sandane_Airport,SDN,ENSD,"37,272","2,997",(2014)
353,Q957105,Sandefjord Airport,ENTO,TRF,64943,10.258611111111,59.186666666667,85.9537692,,2073228,2081865,https://www.torp.no/footer/om-torp/passasjerstatistikk/,"https://en.wikipedia.org/wiki/Sandefjord_Airport,_Torp",TRF,ENTO,"1,963,000","42,139",(2017)
354,Q1703563,Sandnessjøen Airport,ENST,SSJ,6052,12.472222222222,65.959722222222,17,1408,73391,127771,https://avinor.no/contentassets/19f04fa7e7694e61b8ddd03c7b593aa4/passasjerer-2019.xlsx,https://en.wikipedia.org/wiki/Sandnessj%C3%B8en_Airport,SSJ,ENST,"74,138","6,627",(2014)
355,Q1432887,"Skien Airport, Geiteryggen",ENSN,SKE,55513,9.567222,59.185,141,1372,,50001,https://avinor.no/globalassets/_konsern/om-oss/statistikk/no/2013/passasjerer-2013.xls,"https://en.wikipedia.org/wiki/Skien_Airport,_Geiteryggen",SKE,ENSN,"33,080","7,108",(2014)
356,Q1703550,"Sogndal Airport, Haukåsen",ENSG,SOG,12097,7.1380555555556,61.157222222222,497.7393798,1110,81682,111359,https://avinor.no/contentassets/19f04fa7e7694e61b8ddd03c7b593aa4/passasjerer-2019.xlsx,https://en.wikipedia.org/wiki/Sogndal_Airport,SOG,ENSG,"70,244","5,735",(2014)
357,Q1432968,Sørkjosen Airport,ENSR,SOJ,871,20.959722222222,69.786666666667,5,1014,21176,27306,https://avinor.no/globalassets/_konsern/om-oss/statistikk/en/2019/december-2019.xlsx,https://en.wikipedia.org/wiki/S%C3%B8rkjosen_Airport,SOJ,ENSR,"15,198","2,343",(2014)
358,Q1355258,Stavanger Airport,ENZV,SVG,144699,5.6377777777778,58.876666666667,8.8392174,2706,4309723,4721971,https://avinor.no/contentassets/19f04fa7e7694e61b8ddd03c7b593aa4/passasjerer-2019.xlsx,https://en.wikipedia.org/wiki/Stavanger_Airport,SVG,ENZV,"4,309,723",,(2019)
359,Q1703543,Stokmarknes Airport,ENSK,SKN,3395,15.026111111111,68.580833333333,4,924,103028,120692,https://avinor.no/globalassets/_konsern/om-oss/statistikk/en/2019/december-2019.xlsx,https://en.wikipedia.org/wiki/Stokmarknes_Airport,SKN,ENSK,"93,782","6,302",(2016)
360,Q1704176,Stord Airport,ENSO,SRP,18919,5.3397222222222,59.792777777778,49,1460,,68510,https://avinor.no/globalassets/_konsern/om-oss/statistikk/no/2007/passasjerer-2007.xls,https://en.wikipedia.org/wiki/Stord_Airport,SRP,ENSO,"37,936","3,538",(2014)
361,Q2567730,Svea Airport,ENSA,,,16.725,77.896944444444,10,800,,,,https://en.wikipedia.org/wiki/Svea_Airport,,ENSA,,,
362,Q1703557,Svolvær Airport,ENSH,SVJ,4686,14.6692,68.2433,9,949,94498,107144,https://avinor.no/globalassets/_konsern/om-oss/statistikk/en/2019/december-2019.xlsx,https://en.wikipedia.org/wiki/Svolv%C3%A6r_Airport,SVJ,ENSH,"74,496","4,308",(2014)
363,Q2413018,Tromsø Airport,ENTC,TOS,77544,18.917777777778,69.681388888889,9.7536192,2447,2370565,2370565,https://avinor.no/globalassets/_konsern/om-oss/statistikk/en/2019/december-2019.xlsx,https://en.wikipedia.org/wiki/Troms%C3%B8_Airport,TOS,ENTC,"2,009,146","42,444",(2015)
364,Q729886,Trondheim Airport,ENVA,TRD,464060,10.924166666667,63.4575,17,2999,4381921,4441870,https://avinor.no/contentassets/19f04fa7e7694e61b8ddd03c7b593aa4/passasjerer-2019.xlsx,https://en.wikipedia.org/wiki/Trondheim_Airport,TRD,ENVA,"4,381,921",,(2019)
365,Q182789,Vadsø Airport,ENVD,VDS,5568,29.844722222222,70.065277777778,38.7096762,997,100992,107688,https://avinor.no/globalassets/_konsern/om-oss/statistikk/en/2019/december-2019.xlsx,https://en.wikipedia.org/wiki/Vads%C3%B8_Airport,VDS,ENVD,"77,348","6,967",(2014)
366,Q1433183,"Vardø Airport, Svartnes",ENSS,VAW,1846,31.045,70.355277777778,12.8016252,1145,29724,32217,https://avinor.no/globalassets/_konsern/om-oss/statistikk/en/2019/december-2019.xlsx,https://en.wikipedia.org/wiki/Vard%C3%B8_Airport,VAW,ENSS,"13,889","2,518",(2014)
367,Q1914256,Ängelholm-Helsingborg Airport,ESTA,AGH,29490,12.855,56.296111111111,21,,386519,418027,https://www.transportstyrelsen.se/globalassets/global/luftfart/statistik_och_analys/flygplatsstatistik-excelfiler/200115-passagerarfrekvens-per-flygplats.xlsx,https://en.wikipedia.org/wiki/%C3%84ngelholm%E2%80%93Helsingborg_Airport,AGH,ESTA,"386,519","5,640",(2019)
368,Q1430874,Arvidsjaur Airport,ESNX,AJR,6215,19.281944444444,65.590277777778,379,2500,58769,58769,https://www.transportstyrelsen.se/globalassets/global/luftfart/statistik_och_analys/flygplatsstatistik-excelfiler/200115-passagerarfrekvens-per-flygplats.xlsx,https://en.wikipedia.org/wiki/Arvidsjaur_Airport,AJR,ESNX,"31,202",,(2016)
369,Q944839,Dala Airport,ESSD,BLE,,15.515,60.421944444444,153,2310,21377,32404,https://www.transportstyrelsen.se/globalassets/global/luftfart/statistik_och_analys/flygplatsstatistik-excelfiler/200115-passagerarfrekvens-per-flygplats.xlsx,https://en.wikipedia.org/wiki/Dala_Airport,BLE,ESSD,"2,497",,(2018)
370,Q615917,Gällivare Airport,ESNG,GEV,10929,20.812222222222,67.133055555556,312,1714,27138,36381,https://www.transportstyrelsen.se/globalassets/global/luftfart/statistik_och_analys/flygplatsstatistik-excelfiler/200115-passagerarfrekvens-per-flygplats.xlsx,https://en.wikipedia.org/wiki/G%C3%A4llivare_Lapland_Airport,GEV,ESNG,"20,377",,(2018)
371,Q1137115,Gothenburg-Landvetter Airport,ESGG,GOT,607882,12.291111111111,57.66,154,3300,6671361,6807631,https://www.transportstyrelsen.se/globalassets/global/luftfart/statistik_och_analys/flygplatsstatistik-excelfiler/200115-passagerarfrekvens-per-flygplats.xlsx,https://en.wikipedia.org/wiki/G%C3%B6teborg_Landvetter_Airport,GOT,ESGG,"1,202,793",,(2019)
372,Q2213149,Hagfors Airport,ESOH,HFS,11589,13.58055556,60.025,144,1510,3299,3299,https://www.transportstyrelsen.se/globalassets/global/luftfart/statistik_och_analys/flygplatsstatistik-excelfiler/200115-passagerarfrekvens-per-flygplats.xlsx,https://en.wikipedia.org/wiki/Hagfors_Airport,HFS,ESOH,24,,(2016)
373,Q2181363,Halmstad Airport,ESMT,HAD,71422,12.82,56.690833333333,31,2261,124415,134033,https://www.transportstyrelsen.se/globalassets/global/luftfart/statistik_och_analys/flygplatsstatistik-excelfiler/200115-passagerarfrekvens-per-flygplats.xlsx,https://en.wikipedia.org/wiki/Halmstad_Airport,HAD,ESMT,"111,053",,(2019)
374,Q1933061,Hemavan-Tärnaby Airport,ESUT,HMV,273,15.082777777778,65.806111111111,460,1601,12075,14435,https://www.transportstyrelsen.se/globalassets/global/luftfart/statistik_och_analys/flygplatsstatistik-excelfiler/200115-passagerarfrekvens-per-flygplats.xlsx,https://en.wikipedia.org/wiki/Hemavan_Airport,HMV,ESUT,"10,927",,(2018)
375,Q2714211,Jönköping Airport,ESGJ,JKG,100579,14.071666666667,57.758333333333,226,,66601,114269,https://www.transportstyrelsen.se/globalassets/global/luftfart/statistik_och_analys/flygplatsstatistik-excelfiler/200115-passagerarfrekvens-per-flygplats.xlsx,https://en.wikipedia.org/wiki/J%C3%B6nk%C3%B6ping_Airport,JKG,ESGJ,"66,601","4,964",(2019)
376,Q2296338,Kalmar Airport,ESMQ,KLR,41852,16.2875,56.685277777778,5,2050,232049,250112,https://www.transportstyrelsen.se/globalassets/global/luftfart/statistik_och_analys/flygplatsstatistik-excelfiler/200115-passagerarfrekvens-per-flygplats.xlsx,https://en.wikipedia.org/wiki/Kalmar_Airport,KLR,ESMQ,"202,861",,(2018)
377,Q734482,Karlstad Airport,ESOK,KSD,96466,13.3375,59.444722222222,107,,52009,93638,https://www.transportstyrelsen.se/globalassets/global/luftfart/statistik_och_analys/flygplatsstatistik-excelfiler/200115-passagerarfrekvens-per-flygplats.xlsx,https://en.wikipedia.org/wiki/Karlstad_Airport,KSD,ESOK,"45,865",,(2017)
378,Q1431740,Kiruna Airport,ESNQ,KRN,17513,20.335555555556,67.821388888889,459.9441054,2502,267941,282508,,https://en.wikipedia.org/wiki/Kiruna_Airport,KRN,ESNQ,"272,644",,(2018)
379,Q1150868,Kramfors-Sollefteå Airport,ESNK,KRF,6881,17.768611111111,63.048333333333,10,,8489,13623,https://www.transportstyrelsen.se/globalassets/global/luftfart/statistik_och_analys/flygplatsstatistik-excelfiler/200115-passagerarfrekvens-per-flygplats.xlsx,https://en.wikipedia.org/wiki/H%C3%B6ga_Kusten_Airport,KRF,ESNK,"8,735",,(2016)
380,Q3503582,Kristianstad Airport,ESMK,KID,41299,14.083333333333,55.911944444444,10,2215,40444,40444,https://www.transportstyrelsen.se/globalassets/global/luftfart/statistik_och_analys/flygplatsstatistik-excelfiler/200115-passagerarfrekvens-per-flygplats.xlsx,https://en.wikipedia.org/wiki/Kristianstad_Airport,KID,ESMK,"28,385",,(2018)
381,Q1431883,Linköping/Saab Airport,ESSL,LPI,115682,15.672777777778,58.408333333333,52,,144585,157780,https://www.transportstyrelsen.se/globalassets/global/luftfart/statistik_och_analys/flygplatsstatistik-excelfiler/200115-passagerarfrekvens-per-flygplats.xlsx,https://en.wikipedia.org/wiki/Link%C3%B6ping/Saab_Airport,LPI,ESSL,144.585,,(2019)
382,Q1431971,Luleå-Kallax Airport,ESPA,LLA,49123,22.121944444444,65.543611111111,20,3350,1162424,1204535,https://www.swedavia.se/globalassets/statistik/fpl_201912.pdf,https://en.wikipedia.org/wiki/Lule%C3%A5_Airport,LLA,ESPA,"410,607",,(2020)
383,Q26256,Lycksele Airport,ESNL,LYC,,18.716111111111,64.548055555556,215,,18048,20089,https://www.transportstyrelsen.se/globalassets/global/luftfart/statistik_och_analys/flygplatsstatistik-excelfiler/200115-passagerarfrekvens-per-flygplats.xlsx,https://en.wikipedia.org/wiki/Lycksele_Airport,LYC,ESNL,"14,052",,(2018)
384,Q898922,Malmö Airport,ESMS,MMX,644431,13.371388888889,55.53,72,,1975842,2219958,,https://en.wikipedia.org/wiki/Malm%C3%B6_Airport,MMX,ESMS,1,18,(2019)
385,Q26215,Mora-Siljan Airport,ESKM,MXX,12854,14.511111111111,60.958611111111,193,,2757,2757,https://www.transportstyrelsen.se/globalassets/global/luftfart/statistik_och_analys/flygplatsstatistik-excelfiler/200115-passagerarfrekvens-per-flygplats.xlsx,https://en.wikipedia.org/wiki/Mora%E2%80%93Siljan_Airport,MXX,ESKM,132,,(2016
386,Q580554,Norrköping Airport,ESSP,NRK,98088,16.231667,58.586111,5,2203,103298,109170,https://www.transportstyrelsen.se/globalassets/global/luftfart/statistik_och_analys/flygplatsstatistik-excelfiler/200115-passagerarfrekvens-per-flygplats.xlsx,https://en.wikipedia.org/wiki/Norrk%C3%B6ping_Airport,NRK,ESSP,"103,298","4,617",(2019)
387,Q2625512,Örebro Airport,ESOE,ORB,126604,15.038055555556,59.223611111111,57,,77259,109058,https://www.transportstyrelsen.se/globalassets/global/luftfart/statistik_och_analys/flygplatsstatistik-excelfiler/200115-passagerarfrekvens-per-flygplats.xlsx,https://en.wikipedia.org/wiki/%C3%96rebro_Airport,ORB,ESOE,"2,176",,(2018)
